$GPVTG,120.7,T,,,14.3,N,26.5,K,A*43
$GPGSV,3,1,10,13,28,247,24,19,64,001,28,25,69,295,39,03,42,032,24*7A
$GPGSV,3,2,10,07,48,317,39,11,40,196,31,06,32,038,21,08,11,322,27*74
$GPGSV,3,3,10,23,18,207,,16,18,085,*76
$GPGGA,033941.996,2509.1085,N,12146.2278,E,1,07,1.5,35.48,M,,,,*01
$GPGLL,2509.1085,N,12146.2278,E,033941.996,A,A*5E
$GPGSA,A,3,03,06,07,11,13,19,25,,,,,,2.9,1.5,2.5*35
$GPRMC,033941.996,A,2509.1085,N,12146.2278,E,15.9,117.9,151009,,,A*56
$GPVTG,117.9,T,,,15.9,N,29.5,K,A*4D
$GPGSV,3,1,10,13,28,247,25,19,64,001,30,25,69,295,39,03,42,032,29*7F
$GPGSV,3,2,10,07,48,317,36,11,40,196,29,06,32,038,23,08,11,322,25*72
$GPGSV,3,3,10,23,18,207,,16,18,085,*76
$GPGGA,033942.995,2509.1069,N,12146.2332,E,1,07,1.5,35.71,M,,,,*06
$GPGLL,2509.1069,N,12146.2332,E,033942.995,A,A*53
$GPGSA,A,3,03,06,07,11,13,19,25,,,,,,2.9,1.5,2.5*35
$GPRMC,033942.995,A,2509.1069,N,12146.2332,E,18.3,110.2,151009,,,A*50
$GPVTG,110.2,T,,,18.3,N,33.8,K,A*40
$GPGSV,3,1,10,13,28,247,25,19,64,001,33,25,69,295,39,03,42,032,31*75
$GPGSV,3,2,10,07,48,317,36,11,40,196,29,06,32,038,23,08,11,322,23*74
$GPGSV,3,3,10,23,18,207,,16,18,085,*76
$GPGGA,033943.997,2509.1052,N,12146.2384,E,1,07,1.5,35.84,M,,,,*0A
$GPGLL,2509.1052,N,12146.2384,E,033943.997,A,A*55
$GPGSA,A,3,03,06,07,11,13,19,25,,,,,,2.9,1.5,2.5*35
$GPRMC,033943.997,A,2509.1052,N,12146.2384,E,19.0,109.8,151009,,,A*56
$GPVTG,109.8,T,,,19.0,N,35.1,K,A*4F
$GPGSV,3,1,10,13,28,247,28,19,64,001,33,25,69,295,39,03,42,032,35*7C
$GPGSV,3,2,10,07,48,317,39,11,40,196,29,06,32,038,26,08,11,322,20*7D
$GPGSV,3,3,10,23,18,207,,16,18,085,*76
$GPGGA,033944.995,2509.1032,N,12146.2449,E,1,07,1.5,36.07,M,,,,*07
$GPGLL,2509.1032,N,12146.2449,E,033944.995,A,A*50
$GPGSA,A,3,03,06,07,11,13,19,25,,,,,,2.9,1.5,2.5*35
$GPRMC,033944.995,A,2509.1032,N,12146.2449,E,19.1,109.2,151009,,,A*58
$GPVTG,109.2,T,,,19.1,N,35.3,K,A*46
$GPGSV,3,1,10,13,28,247,29,19,64,001,33,25,69,295,40,03,42,032,33*75
$GPGSV,3,2,10,07,48,317,40,11,40,196,27,06,32,038,26,08,11,322,19*77
$GPGSV,3,3,10,23,18,207,,16,18,085,*76
$GPGGA,033945.997,2509.1011,N,12146.2502,E,1,07,1.5,36.16,M,,,,*0B
$GPGLL,2509.1011,N,12146.2502,E,033945.997,A,A*5C
$GPGSA,A,3,03,06,07,11,13,19,25,,,,,,2.9,1.5,2.5*35
$GPRMC,033945.997,A,2509.1011,N,12146.2502,E,18.8,112.1,151009,,,A*55
$GPVTG,112.1,T,,,18.8,N,34.9,K,A*4C
$GPGSV,3,1,10,13,28,247,30,19,64,001,33,25,69,295,41,03,42,032,31*7E
$GPGSV,3,2,10,07,48,316,41,11,40,196,27,06,32,038,26,08,11,322,15*7B
$GPGSV,3,3,10,23,18,207,,16,18,085,*76
$GPGGA,033946.995,2509.0990,N,12146.2553,E,1,07,1.5,36.40,M,,,,*0C
$GPGLL,2509.0990,N,12146.2553,E,033946.995,A,A*58
$GPGSA,A,3,03,06,07,11,13,19,25,,,,,,2.9,1.5,2.5*35
$GPRMC,033946.995,A,2509.0990,N,12146.2553,E,18.1,114.6,151009,,,A*59
$GPVTG,114.6,T,,,18.1,N,33.5,K,A*4F
$GPGSV,3,1,10,13,28,247,27,19,64,001,33,25,69,295,41,03,42,032,27*7F
$GPGSV,3,2,10,07,48,316,41,11,40,196,28,06,32,038,25,23,18,207,*75
$GPGSV,3,3,10,16,18,085,,08,11,322,*70
$GPGGA,033947.996,2509.0965,N,12146.2609,E,1,08,1.5,36.55,M,,,,*03
$GPGLL,2509.0965,N,12146.2609,E,033947.996,A,A*5C
$GPGSA,A,3,03,06,07,11,13,16,19,25,,,,,2.9,1.5,2.5*32
$GPRMC,033947.996,A,2509.0965,N,12146.2609,E,16.5,116.1,151009,,,A*52
$GPVTG,116.1,T,,,16.5,N,30.6,K,A*40
$GPGSV,3,1,10,13,28,247,26,19,64,001,33,25,69,295,41,03,42,032,29*70
$GPGSV,3,2,10,07,48,316,41,11,40,196,28,06,32,038,24,16,18,085,19*72
$GPGSV,3,3,10,08,11,322,17,23,18,207,*78
$GPGGA,033948.994,2509.0947,N,12146.2660,E,1,07,1.5,36.50,M,,,,*0B
$GPGLL,2509.0947,N,12146.2660,E,033948.994,A,A*5E
$GPGSA,A,3,03,07,11,13,16,19,25,,,,,,2.9,1.5,2.5*34
$GPRMC,033948.994,A,2509.0947,N,12146.2660,E,14.1,111.9,151009,,,A*59
$GPVTG,111.9,T,,,14.1,N,26.1,K,A*49
$GPGSV,3,1,10,13,28,247,25,19,64,001,36,25,69,295,41,03,42,032,31*7F
$GPGSV,3,2,10,07,48,316,41,11,40,196,29,06,32,038,23,16,18,085,21*7F
$GPGSV,3,3,10,08,11,322,19,23,18,207,*76
$GPGGA,033949.997,2509.0925,N,12146.2702,E,1,07,1.5,36.69,M,,,,*02
$GPGLL,2509.0925,N,12146.2702,E,033949.997,A,A*5D
$GPGSA,A,3,06,07,11,13,16,19,25,,,,,,2.9,1.5,2.5*31
$GPRMC,033949.997,A,2509.0925,N,12146.2702,E,11.9,118.2,151009,,,A*55
$GPVTG,118.2,T,,,11.9,N,21.9,K,A*49
$GPGSV,3,1,10,13,28,247,25,19,64,001,35,25,69,295,41,03,42,032,29*75
$GPGSV,3,2,10,07,48,316,41,11,40,196,30,06,32,038,23,16,18,085,26*70
$GPGSV,3,3,10,08,11,322,13,23,18,207,*7C
$GPGGA,033950.995,2509.0916,N,12146.2746,E,1,08,1.5,36.65,M,,,,*0B
$GPGLL,2509.0916,N,12146.2746,E,033950.995,A,A*57
$GPGSA,A,3,03,06,07,11,13,16,19,25,,,,,2.9,1.5,2.5*32
$GPRMC,033950.995,A,2509.0916,N,12146.2746,E,8.0,107.5,151009,,,A*67
$GPVTG,107.5,T,,,8.0,N,14.9,K,A*77
$GPGSV,3,1,10,13,28,247,24,19,64,001,32,25,69,295,41,03,42,032,24*7E
$GPGSV,3,2,10,07,48,316,41,11,40,196,30,06,32,038,21,16,18,085,29*7D
$GPGSV,3,3,10,23,18,207,,08,11,322,*7E
$GPGGA,033951.996,2509.0905,N,12146.2773,E,1,08,1.5,36.68,M,,,,*00
$GPGLL,2509.0905,N,12146.2773,E,033951.996,A,A*51
$GPGSA,A,3,03,06,07,11,13,16,19,25,,,,,2.9,1.5,2.5*32
$GPRMC,033951.996,A,2509.0905,N,12146.2773,E,7.9,112.4,151009,,,A*62
$GPVTG,112.4,T,,,7.9,N,14.7,K,A*7A
$GPGSV,3,1,10,13,28,247,24,19,64,001,28,25,69,295,41,03,42,032,21*70
$GPGSV,3,2,10,07,48,316,41,11,40,196,32,06,32,038,22,16,18,085,31*75
$GPGSV,3,3,10,23,18,207,,08,11,322,*7E
$GPGGA,033952.995,2509.0898,N,12146.2800,E,1,08,1.3,36.73,M,,,,*02
$GPGLL,2509.0898,N,12146.2800,E,033952.995,A,A*5F
$GPGSA,A,3,03,06,07,11,13,16,19,25,,,,,2.6,1.3,2.3*3D
$GPRMC,033952.995,A,2509.0898,N,12146.2800,E,7.4,109.6,151009,,,A*69
$GPVTG,109.6,T,,,7.4,N,13.7,K,A*78
$GPGSV,3,1,10,13,28,247,25,19,64,001,24,25,69,295,40,03,42,032,26*7B
$GPGSV,3,2,10,07,48,316,40,11,40,196,30,06,32,038,24,16,18,085,29*79
$GPGSV,3,3,10,23,18,207,,08,11,322,*7E
$GPGGA,033953.997,2509.0888,N,12146.2829,E,1,08,1.3,36.77,M,,,,*0F
$GPGLL,2509.0888,N,12146.2829,E,033953.997,A,A*56
$GPGSA,A,3,03,06,07,11,13,16,19,25,,,,,2.6,1.3,2.3*3D
$GPRMC,033953.997,A,2509.0888,N,12146.2829,E,9.0,110.9,151009,,,A*6D
$GPVTG,110.9,T,,,9.0,N,16.7,K,A*70
$GPGSV,3,1,10,13,28,247,25,19,64,001,26,25,69,295,40,03,42,032,32*7C
$GPGSV,3,2,10,07,48,316,36,11,40,196,27,06,32,038,28,16,18,085,27*7C
$GPGSV,3,3,10,23,18,207,,08,11,322,*7E
$GPGGA,033954.995,2509.0881,N,12146.2863,E,1,08,1.3,37.02,M,,,,*0E
$GPGLL,2509.0881,N,12146.2863,E,033954.995,A,A*54
$GPGSA,A,3,03,06,07,11,13,16,19,25,,,,,2.6,1.3,2.3*3D
$GPRMC,033954.995,A,2509.0881,N,12146.2863,E,11.8,105.6,151009,,,A*55
$GPVTG,105.6,T,,,11.8,N,21.8,K,A*41
$GPGSV,3,1,10,13,28,247,24,19,64,001,29,25,69,295,40,03,42,032,37*77
$GPGSV,3,2,10,07,48,316,33,11,40,196,27,06,32,038,32,16,18,085,26*73
$GPGSV,3,3,10,23,18,207,,08,11,322,*7E
$GPGGA,033955.996,2509.0865,N,12146.2901,E,1,07,1.3,37.21,M,,,,*0D
$GPGLL,2509.0865,N,12146.2901,E,033955.996,A,A*59
$GPGSA,A,3,03,06,07,11,16,19,25,,,,,,2.6,1.3,2.3*3F
$GPRMC,033955.996,A,2509.0865,N,12146.2901,E,13.1,112.7,151009,,,A*54
$GPVTG,112.7,T,,,13.1,N,24.3,K,A*43
$GPGSV,3,1,10,13,28,247,22,19,64,001,34,25,69,295,40,03,42,032,37*7D
$GPGSV,3,2,10,07,48,316,33,11,40,196,28,06,32,038,33,16,18,085,24*7F
$GPGSV,3,3,10,23,18,207,,08,11,322,*7E
$GPGGA,033956.995,2509.0848,N,12146.2938,E,1,06,1.3,37.06,M,,,,*0C
$GPGLL,2509.0848,N,12146.2938,E,033956.995,A,A*5C
$GPGSA,A,3,03,06,07,11,19,25,,,,,,,2.6,1.3,2.3*38
$GPRMC,033956.995,A,2509.0848,N,12146.2938,E,14.3,116.0,151009,,,A*57
$GPVTG,116.0,T,,,14.3,N,26.6,K,A*42
$GPGSV,3,1,10,13,28,247,20,19,64,001,36,25,69,295,40,03,42,032,37*7D
$GPGSV,3,2,10,07,48,316,36,11,40,196,30,06,32,038,35,16,18,085,23*72
$GPGSV,3,3,10,23,18,207,,08,11,322,*7E
$GPGGA,033957.997,2509.0821,N,12146.2980,E,1,06,2.0,37.12,M,,,,*06
$GPGLL,2509.0821,N,12146.2980,E,033957.997,A,A*53
$GPGSA,A,3,03,06,07,11,19,25,,,,,,,4.4,2.0,3.9*37
$GPRMC,033957.997,A,2509.0821,N,12146.2980,E,15.3,123.3,151009,,,A*5C
$GPVTG,123.3,T,,,15.3,N,28.3,K,A*4D
$GPGSV,3,1,10,19,64,001,37,25,69,295,40,03,42,032,37,07,48,316,39*72
$GPGSV,3,2,10,11,40,196,27,06,32,038,36,16,18,085,19,13,28,247,*7D
$GPGSV,3,3,10,23,18,207,,08,11,322,*7E
$GPGGA,033958.995,2509.0792,N,12146.3020,E,1,06,2.0,37.11,M,,,,*0D
$GPGLL,2509.0792,N,12146.3020,E,033958.995,A,A*5B
$GPGSA,A,3,03,06,07,13,19,25,,,,,,,4.4,2.0,3.9*35
$GPRMC,033958.995,A,2509.0792,N,12146.3020,E,15.7,127.8,151009,,,A*5F
$GPVTG,127.8,T,,,15.7,N,29.0,K,A*44
$GPGSV,3,1,10,13,28,247,23,19,64,001,37,25,69,295,40,03,42,032,37*7F
$GPGSV,3,2,10,07,48,316,39,11,40,196,25,06,32,038,36,23,18,207,*75
$GPGSV,3,3,10,16,18,085,,08,11,322,*70
$GPGGA,033959.997,2509.0766,N,12146.3063,E,1,08,2.0,37.18,M,,,,*05
$GPGLL,2509.0766,N,12146.3063,E,033959.997,A,A*54
$GPGSA,A,3,03,06,07,11,13,16,19,25,,,,,4.4,2.0,3.9*32
$GPRMC,033959.997,A,2509.0766,N,12146.3063,E,15.4,125.2,151009,,,A*5B
$GPVTG,125.2,T,,,15.4,N,28.5,K,A*4B
$GPGSV,3,1,10,13,28,247,24,19,64,001,37,25,69,295,40,03,42,032,37*78
$GPGSV,3,2,10,07,48,316,39,11,40,196,23,06,32,038,36,16,18,085,22*7D
$GPGSV,3,3,10,23,18,207,,08,11,322,*7E
$GPGGA,034000.995,2509.0728,N,12146.3097,E,1,08,2.0,36.94,M,,,,*01
$GPGLL,2509.0728,N,12146.3097,E,034000.995,A,A*55
$GPGSA,A,3,03,06,07,11,13,16,19,25,,,,,4.4,2.0,3.9*32
$GPRMC,034000.995,A,2509.0728,N,12146.3097,E,13.7,137.9,151009,,,A*57
$GPVTG,137.9,T,,,13.7,N,25.3,K,A*4D
$GPGSV,3,1,10,13,28,247,24,19,64,001,39,25,69,295,39,03,42,032,33*7C
$GPGSV,3,2,10,07,48,316,39,11,40,196,22,06,32,038,32,16,18,085,28*72
$GPGSV,3,3,10,23,18,207,,08,11,322,*7E
$GPGGA,034001.996,2509.0701,N,12146.3126,E,1,07,2.0,36.83,M,,,,*0A
$GPGLL,2509.0701,N,12146.3126,E,034001.996,A,A*57
$GPGSA,A,3,03,06,07,13,16,19,25,,,,,,4.4,2.0,3.9*32
$GPRMC,034001.996,A,2509.0701,N,12146.3126,E,11.3,136.3,151009,,,A*58
$GPVTG,136.3,T,,,11.3,N,20.9,K,A*4F
$GPGSV,3,1,10,13,28,247,21,19,64,001,39,25,69,295,39,03,42,032,32*78
$GPGSV,3,2,10,07,48,316,39,11,40,196,23,06,32,038,32,16,18,085,33*79
$GPGSV,3,3,10,08,11,322,18,23,18,207,*77
$GPGGA,034002.995,2509.0688,N,12146.3155,E,1,08,2.0,36.55,M,,,,*0A
$GPGLL,2509.0688,N,12146.3155,E,034002.995,A,A*53
$GPGSA,A,3,03,06,07,11,13,16,19,25,,,,,3.3,2.0,2.6*3C
$GPRMC,034002.995,A,2509.0688,N,12146.3155,E,6.4,131.5,151009,,,A*6C
$GPVTG,131.5,T,,,6.4,N,11.8,K,A*7C
$GPGSV,3,1,10,13,28,247,21,19,64,001,40,25,69,295,40,03,42,032,32*78
$GPGSV,3,2,10,07,48,316,40,11,40,196,23,06,32,038,33,16,18,085,35*70
$GPGSV,3,3,10,08,11,322,21,23,18,207,*7D
$GPGGA,034003.997,2509.0672,N,12146.3163,E,1,08,2.0,36.18,M,,,,*00
$GPGLL,2509.0672,N,12146.3163,E,034003.997,A,A*50
$GPGSA,A,3,03,06,07,11,13,16,19,25,,,,,3.3,2.0,2.6*3C
$GPRMC,034003.997,A,2509.0672,N,12146.3163,E,3.3,131.5,151009,,,A*6D
$GPVTG,131.5,T,,,3.3,N,6.1,K,A*41
$GPGSV,3,1,10,13,28,247,22,19,64,001,40,25,69,295,40,03,42,032,37*7E
$GPGSV,3,2,10,07,48,316,40,11,40,196,23,06,32,038,38,16,18,085,33*7D
$GPGSV,3,3,10,08,11,322,24,23,18,207,*78
$GPGGA,034004.995,2509.0663,N,12146.3164,E,1,08,2.0,35.95,M,,,,*04
$GPGLL,2509.0663,N,12146.3164,E,034004.995,A,A*52
$GPGSA,A,3,03,06,07,11,13,16,19,25,,,,,3.3,2.0,2.6*3C
$GPRMC,034004.995,A,2509.0663,N,12146.3164,E,1.0,131.5,151009,,,A*6E
$GPVTG,131.5,T,,,1.0,N,1.9,K,A*4F
$GPGSV,3,1,10,13,28,247,23,19,64,001,39,25,69,295,39,03,42,032,39*71
$GPGSV,3,2,10,07,48,316,39,11,40,196,24,06,32,038,39,16,18,085,30*76
$GPGSV,3,3,10,08,11,322,24,23,18,207,*78
$GPGGA,034005.996,2509.0663,N,12146.3167,E,1,08,2.0,35.80,M,,,,*01
$GPGLL,2509.0663,N,12146.3167,E,034005.996,A,A*53
$GPGSA,A,3,03,06,07,11,13,16,19,25,,,,,3.3,2.0,2.6*3C
$GPRMC,034005.996,A,2509.0663,N,12146.3167,E,0.1,131.5,151009,,,A*6F
$GPVTG,131.5,T,,,0.1,N,0.2,K,A*45
$GPGSV,3,1,10,13,28,247,25,19,64,001,39,25,69,295,39,03,42,032,39*77
$GPGSV,3,2,10,07,48,316,39,11,40,196,25,06,32,038,39,16,18,085,28*7E
$GPGSV,3,3,10,08,11,322,24,23,18,207,*78
$GPGGA,034006.995,2509.0663,N,12146.3167,E,1,08,2.0,35.84,M,,,,*05
$GPGLL,2509.0663,N,12146.3167,E,034006.995,A,A*53
$GPGSA,A,3,03,06,07,11,13,16,19,25,,,,,3.3,2.0,2.6*3C
$GPRMC,034006.995,A,2509.0663,N,12146.3167,E,0.0,131.5,151009,,,A*6E
$GPVTG,131.5,T,,,0.0,N,0.0,K,A*46
$GPGSV,3,1,10,13,28,247,25,19,64,001,39,25,69,295,39,03,42,032,39*77
$GPGSV,3,2,10,07,48,316,39,11,40,196,26,06,32,038,39,16,18,085,28*7D
$GPGSV,3,3,10,08,11,322,24,23,18,207,*78
$GPGGA,034007.997,2509.0663,N,12146.3167,E,1,08,1.3,35.84,M,,,,*06
$GPGLL,2509.0663,N,12146.3167,E,034007.997,A,A*50
$GPGSA,A,3,03,06,07,11,13,16,19,25,,,,,2.6,1.3,2.3*3D
$GPRMC,034007.997,A,2509.0663,N,12146.3167,E,0.0,131.5,151009,,,A*6D
$GPVTG,131.5,T,,,0.0,N,0.0,K,A*46
$GPGSV,3,1,10,13,28,247,25,19,64,001,39,25,69,295,39,03,42,032,39*77
$GPGSV,3,2,10,07,48,316,39,11,40,196,24,06,32,038,39,16,18,085,29*7E
$GPGSV,3,3,10,08,11,322,24,23,18,207,*78
$GPGGA,034008.995,2509.0663,N,12146.3167,E,1,08,1.3,35.84,M,,,,*0B
$GPGLL,2509.0663,N,12146.3167,E,034008.995,A,A*5D
$GPGSA,A,3,03,06,07,11,13,16,19,25,,,,,2.6,1.3,2.3*3D
$GPRMC,034008.995,A,2509.0663,N,12146.3167,E,0.0,131.5,151009,,,A*60
$GPVTG,131.5,T,,,0.0,N,0.0,K,A*46
$GPGSV,3,1,10,13,28,247,25,19,64,001,39,25,69,295,39,03,42,032,39*77
$GPGSV,3,2,10,07,48,316,39,11,40,196,25,06,32,038,39,16,18,085,29*7F
$GPGSV,3,3,10,08,11,322,24,23,18,207,*78
$GPGGA,034009.997,2509.0663,N,12146.3167,E,1,08,1.3,35.84,M,,,,*08
$GPGLL,2509.0663,N,12146.3167,E,034009.997,A,A*5E
$GPGSA,A,3,03,06,07,11,13,16,19,25,,,,,2.6,1.3,2.3*3D
$GPRMC,034009.997,A,2509.0663,N,12146.3167,E,0.0,131.5,151009,,,A*63
$GPVTG,131.5,T,,,0.0,N,0.0,K,A*46
$GPGSV,3,1,10,13,28,247,24,19,64,001,39,25,69,295,39,03,42,032,39*76
$GPGSV,3,2,10,07,48,316,39,11,40,196,25,06,32,038,39,16,18,085,31*76
$GPGSV,3,3,10,08,11,322,24,23,18,207,*78
$GPGGA,034010.995,2509.0663,N,12146.3167,E,1,08,1.3,35.84,M,,,,*02
$GPGLL,2509.0663,N,12146.3167,E,034010.995,A,A*54
$GPGSA,A,3,03,06,07,11,13,16,19,25,,,,,2.6,1.3,2.3*3D
$GPRMC,034010.995,A,2509.0663,N,12146.3167,E,0.0,131.5,151009,,,A*69
$GPVTG,131.5,T,,,0.0,N,0.0,K,A*46
$GPGSV,3,1,10,13,28,247,24,19,64,001,39,25,69,295,39,03,42,032,39*76
$GPGSV,3,2,10,07,48,316,39,11,40,196,25,06,32,038,39,16,18,085,31*76
$GPGSV,3,3,10,08,11,322,24,23,18,207,*78
$GPGGA,034011.996,2509.0663,N,12146.3167,E,1,08,1.3,35.84,M,,,,*00
$GPGLL,2509.0663,N,12146.3167,E,034011.996,A,A*56
$GPGSA,A,3,03,06,07,11,13,16,19,25,,,,,2.6,1.3,2.3*3D
$GPRMC,034011.996,A,2509.0663,N,12146.3167,E,0.0,131.5,151009,,,A*6B
$GPVTG,131.5,T,,,0.0,N,0.0,K,A*46
$GPGSV,3,1,10,13,28,247,24,19,64,001,39,25,69,295,39,03,42,032,39*76
$GPGSV,3,2,10,07,48,316,39,11,40,196,25,06,32,038,39,16,18,085,31*76
$GPGSV,3,3,10,08,11,322,23,23,18,207,*7F
$GPGGA,034012.994,2509.0663,N,12146.3167,E,1,08,1.3,35.84,M,,,,*01
$GPGLL,2509.0663,N,12146.3167,E,034012.994,A,A*57
$GPGSA,A,3,03,06,07,11,13,16,19,25,,,,,2.6,1.3,2.3*3D
$GPRMC,034012.994,A,2509.0663,N,12146.3167,E,0.0,131.5,151009,,,A*6A
$GPVTG,131.5,T,,,0.0,N,0.0,K,A*46
$GPGSV,3,1,10,13,28,247,24,19,64,001,40,25,69,295,40,03,42,032,40*78
$GPGSV,3,2,10,07,48,316,39,11,40,196,24,06,32,038,37,16,18,085,31*79
$GPGSV,3,3,10,08,11,322,23,23,18,207,*7F
$GPGGA,034013.997,2509.0663,N,12146.3167,E,1,08,1.3,35.84,M,,,,*03
$GPGLL,2509.0663,N,12146.3167,E,034013.997,A,A*55
$GPGSA,A,3,03,06,07,11,13,16,19,25,,,,,2.6,1.3,2.3*3D
$GPRMC,034013.997,A,2509.0663,N,12146.3167,E,0.0,131.5,151009,,,A*68
$GPVTG,131.5,T,,,0.0,N,0.0,K,A*46
$GPGSV,3,1,10,13,28,247,25,19,64,001,40,25,69,295,40,03,42,032,39*77
$GPGSV,3,2,10,07,48,316,39,11,40,196,25,06,32,038,37,16,18,085,31*78
$GPGSV,3,3,10,08,11,322,24,23,18,207,*78
$GPGGA,034014.995,2509.0663,N,12146.3167,E,1,08,1.3,35.84,M,,,,*06
$GPGLL,2509.0663,N,12146.3167,E,034014.995,A,A*50
$GPGSA,A,3,03,06,07,11,13,16,19,25,,,,,2.6,1.3,2.3*3D
$GPRMC,034014.995,A,2509.0663,N,12146.3167,E,0.0,131.5,151009,,,A*6D
$GPVTG,131.5,T,,,0.0,N,0.0,K,A*46
$GPGSV,3,1,10,13,28,247,26,19,64,001,39,25,69,295,39,03,42,032,39*74
$GPGSV,3,2,10,07,48,316,39,11,40,196,26,06,32,038,39,16,18,085,31*75
$GPGSV,3,3,10,08,11,322,25,23,18,207,*79
$GPGGA,034015.996,2509.0663,N,12146.3167,E,1,08,1.3,35.84,M,,,,*04
$GPGLL,2509.0663,N,12146.3167,E,034015.996,A,A*52
$GPGSA,A,3,03,06,07,11,13,16,19,25,,,,,2.6,1.3,2.3*3D
$GPRMC,034015.996,A,2509.0663,N,12146.3167,E,0.0,131.5,151009,,,A*6F
$GPVTG,131.5,T,,,0.0,N,0.0,K,A*46
$GPGSV,3,1,10,13,28,247,26,19,64,001,39,25,69,295,39,03,42,032,39*74
$GPGSV,3,2,10,07,48,316,39,11,41,196,26,06,32,038,39,16,18,085,31*74
$GPGSV,3,3,10,08,11,322,25,23,18,207,*79
$GPGGA,034016.995,2509.0663,N,12146.3167,E,1,08,1.3,35.84,M,,,,*04
$GPGLL,2509.0663,N,12146.3167,E,034016.995,A,A*52
$GPGSA,A,3,03,06,07,11,13,16,19,25,,,,,2.6,1.3,2.3*3D
$GPRMC,034016.995,A,2509.0663,N,12146.3167,E,0.0,131.5,151009,,,A*6F
$GPVTG,131.5,T,,,0.0,N,0.0,K,A*46
$GPGSV,3,1,10,13,28,247,26,19,64,001,39,25,69,295,39,03,42,032,39*74
$GPGSV,3,2,10,07,48,316,39,11,41,196,26,06,32,038,39,16,18,085,29*7D
$GPGSV,3,3,10,08,11,322,25,23,18,207,*79
$GPGGA,034017.997,2509.0663,N,12146.3167,E,1,08,1.3,35.84,M,,,,*07
$GPGLL,2509.0663,N,12146.3167,E,034017.997,A,A*51
$GPGSA,A,3,03,06,07,11,13,16,19,25,,,,,2.6,1.3,2.3*3D
$GPRMC,034017.997,A,2509.0663,N,12146.3167,E,0.0,131.5,151009,,,A*6C
$GPVTG,131.5,T,,,0.0,N,0.0,K,A*46
$GPGSV,3,1,10,13,28,247,25,19,64,001,39,25,69,295,39,03,42,032,39*77
$GPGSV,3,2,10,07,48,316,39,11,41,196,26,06,32,038,39,16,18,085,28*7C
$GPGSV,3,3,10,08,11,322,25,23,18,207,*79
$GPGGA,034018.995,2509.0663,N,12146.3167,E,1,08,1.3,35.84,M,,,,*0A
$GPGLL,2509.0663,N,12146.3167,E,034018.995,A,A*5C
$GPGSA,A,3,03,06,07,11,13,16,19,25,,,,,2.6,1.3,2.3*3D
$GPRMC,034018.995,A,2509.0663,N,12146.3167,E,0.0,131.5,151009,,,A*61
$GPVTG,131.5,T,,,0.0,N,0.0,K,A*46
$GPGSV,3,1,10,13,28,247,24,19,64,001,39,25,69,295,39,03,42,032,39*76
$GPGSV,3,2,10,07,48,316,39,11,41,196,26,06,32,038,39,16,18,085,28*7C
$GPGSV,3,3,10,08,11,322,25,23,18,207,*79
$GPGGA,034019.997,2509.0663,N,12146.3167,E,1,08,1.3,35.84,M,,,,*09
$GPGLL,2509.0663,N,12146.3167,E,034019.997,A,A*5F
$GPGSA,A,3,03,06,07,11,13,16,19,25,,,,,2.6,1.3,2.3*3D
$GPRMC,034019.997,A,2509.0663,N,12146.3167,E,0.0,131.5,151009,,,A*62
$GPVTG,131.5,T,,,0.0,N,0.0,K,A*46
$GPGSV,3,1,10,13,28,247,24,19,64,001,39,25,69,295,39,03,42,032,39*76
$GPGSV,3,2,10,07,48,316,39,11,41,196,26,06,32,038,39,16,18,085,28*7C
$GPGSV,3,3,10,08,11,322,25,23,18,207,*79
$GPGGA,034020.995,2509.0663,N,12146.3167,E,1,08,1.3,35.84,M,,,,*01
$GPGLL,2509.0663,N,12146.3167,E,034020.995,A,A*57
$GPGSA,A,3,03,06,07,11,13,16,19,25,,,,,2.6,1.3,2.3*3D
$GPRMC,034020.995,A,2509.0663,N,12146.3167,E,0.0,131.5,151009,,,A*6A
$GPVTG,131.5,T,,,0.0,N,0.0,K,A*46
$GPGSV,3,1,10,13,28,247,24,19,64,001,39,25,69,295,39,03,42,032,39*76
$GPGSV,3,2,10,07,48,316,39,11,41,196,23,06,32,038,39,16,18,085,27*76
$GPGSV,3,3,10,08,11,322,24,23,18,207,*78
$GPGGA,034021.996,2509.0663,N,12146.3167,E,1,07,1.3,35.84,M,,,,*0C
$GPGLL,2509.0663,N,12146.3167,E,034021.996,A,A*55
$GPGSA,A,3,03,06,07,13,16,19,25,,,,,,2.6,1.3,2.3*3D
$GPRMC,034021.996,A,2509.0663,N,12146.3167,E,0.0,131.5,151009,,,A*68
$GPVTG,131.5,T,,,0.0,N,0.0,K,A*46
$GPGSV,3,1,10,13,28,247,23,19,64,001,39,25,69,295,39,03,42,032,39*71
$GPGSV,3,2,10,07,48,316,39,11,41,196,19,06,32,038,39,16,18,085,28*70
$GPGSV,3,3,10,08,11,322,23,23,18,207,*7F
$GPGGA,034022.994,2509.0663,N,12146.3167,E,1,08,2.0,35.84,M,,,,*02
$GPGLL,2509.0663,N,12146.3167,E,034022.994,A,A*54
$GPGSA,A,3,03,06,07,11,13,16,19,25,,,,,3.3,2.0,2.6*3C
$GPRMC,034022.994,A,2509.0663,N,12146.3167,E,0.0,131.5,151009,,,A*69
$GPVTG,131.5,T,,,0.0,N,0.0,K,A*46
$GPGSV,3,1,10,13,28,247,23,19,64,001,39,25,69,295,39,03,42,032,39*71
$GPGSV,3,2,10,07,48,316,39,11,41,196,19,06,32,038,39,16,18,085,28*70
$GPGSV,3,3,10,08,11,322,23,23,18,207,*7F
$GPGGA,034023.997,2509.0663,N,12146.3167,E,1,08,2.0,35.84,M,,,,*00
$GPGLL,2509.0663,N,12146.3167,E,034023.997,A,A*56
$GPGSA,A,3,03,06,07,11,13,16,19,25,,,,,3.3,2.0,2.6*3C
$GPRMC,034023.997,A,2509.0663,N,12146.3167,E,0.0,131.5,151009,,,A*6B
$GPVTG,131.5,T,,,0.0,N,0.0,K,A*46
$GPGSV,3,1,10,13,28,247,21,19,64,001,39,25,69,295,39,03,42,032,39*73
$GPGSV,3,2,10,07,48,316,39,11,41,196,19,06,32,038,39,16,18,085,30*79
$GPGSV,3,3,10,08,11,322,23,23,18,207,*7F
$GPGGA,034024.995,2509.0663,N,12146.3167,E,1,08,2.0,35.84,M,,,,*05
$GPGLL,2509.0663,N,12146.3167,E,034024.995,A,A*53
$GPGSA,A,3,03,06,07,11,13,16,19,25,,,,,3.3,2.0,2.6*3C
$GPRMC,034024.995,A,2509.0663,N,12146.3167,E,0.0,131.5,151009,,,A*6E
$GPVTG,131.5,T,,,0.0,N,0.0,K,A*46
$GPGSV,3,1,10,13,28,247,20,19,64,001,39,25,69,295,39,03,42,032,39*72
$GPGSV,3,2,10,07,48,316,39,11,41,196,21,06,32,038,36,16,18,085,31*7C
$GPGSV,3,3,10,08,11,322,22,23,18,207,*7E
$GPGGA,034025.996,2509.0663,N,12146.3167,E,1,08,2.0,35.84,M,,,,*07
$GPGLL,2509.0663,N,12146.3167,E,034025.996,A,A*51
$GPGSA,A,3,03,06,07,11,13,16,19,25,,,,,3.3,2.0,2.6*3C
$GPRMC,034025.996,A,2509.0663,N,12146.3167,E,0.0,131.5,151009,,,A*6C
$GPVTG,131.5,T,,,0.0,N,0.0,K,A*46
$GPGSV,3,1,10,13,28,247,18,19,64,001,39,25,69,295,39,03,42,032,37*77
$GPGSV,3,2,10,07,49,316,39,11,41,196,20,06,32,039,33,16,18,085,31*78
$GPGSV,3,3,10,08,11,322,21,23,18,207,*7D
$GPGGA,034026.995,2509.0663,N,12146.3167,E,1,08,2.0,35.84,M,,,,*07
$GPGLL,2509.0663,N,12146.3167,E,034026.995,A,A*51
$GPGSA,A,3,03,06,07,11,13,16,19,25,,,,,3.3,2.0,2.6*3C
$GPRMC,034026.995,A,2509.0663,N,12146.3167,E,0.0,131.5,151009,,,A*6C
$GPVTG,131.5,T,,,0.0,N,0.0,K,A*46
$GPGSV,3,1,10,13,28,247,18,19,64,001,39,25,69,295,39,03,42,032,37*77
$GPGSV,3,2,10,07,49,316,39,11,41,196,21,06,32,039,30,16,18,085,31*7A
$GPGSV,3,3,10,08,11,322,21,23,18,207,*7D
$GPGGA,034027.997,2509.0663,N,12146.3167,E,1,07,1.3,35.84,M,,,,*0B
$GPGLL,2509.0663,N,12146.3167,E,034027.997,A,A*52
$GPGSA,A,3,03,06,07,11,16,19,25,,,,,,2.6,1.3,2.3*3F
$GPRMC,034027.997,A,2509.0663,N,12146.3167,E,0.0,131.5,151009,,,A*6F
$GPVTG,131.5,T,,,0.0,N,0.0,K,A*46
$GPGSV,3,1,10,13,28,247,18,19,64,001,38,25,69,295,38,03,42,032,38*78
$GPGSV,3,2,10,07,49,316,38,11,41,196,22,06,32,039,28,16,18,085,31*71
$GPGSV,3,3,10,08,11,322,21,23,18,207,*7D
$GPGGA,034028.995,2509.0663,N,12146.3167,E,1,06,1.3,35.84,M,,,,*07
$GPGLL,2509.0663,N,12146.3167,E,034028.995,A,A*5F
$GPGSA,A,3,03,06,07,16,19,25,,,,,,,2.6,1.3,2.3*3F
$GPRMC,034028.995,A,2509.0663,N,12146.3167,E,0.0,131.5,151009,,,A*62
$GPVTG,131.5,T,,,0.0,N,0.0,K,A*46
$GPGSV,3,1,10,13,28,247,18,19,64,001,36,25,69,295,39,03,42,032,39*76
$GPGSV,3,2,10,07,49,316,39,11,41,196,18,06,32,039,27,16,18,085,31*76
$GPGSV,3,3,10,08,11,322,21,23,18,207,*7D
$GPGGA,034029.996,2509.0663,N,12146.3167,E,1,07,1.3,35.84,M,,,,*04
$GPGLL,2509.0663,N,12146.3167,E,034029.996,A,A*5D
$GPGSA,A,3,03,06,07,13,16,19,25,,,,,,2.6,1.3,2.3*3D
$GPRMC,034029.996,A,2509.0663,N,12146.3167,E,0.0,131.5,151009,,,A*60
$GPVTG,131.5,T,,,0.0,N,0.0,K,A*46
$GPGSV,3,1,10,13,28,247,19,19,64,001,36,25,69,295,39,03,42,032,36*78
$GPGSV,3,2,10,07,49,316,39,11,41,196,13,06,32,039,26,16,18,085,32*7F
$GPGSV,3,3,10,08,11,322,22,23,18,207,*7E
$GPGGA,034030.995,2509.0663,N,12146.3167,E,1,07,1.3,35.84,M,,,,*0F
$GPGLL,2509.0663,N,12146.3167,E,034030.995,A,A*56
$GPGSA,A,3,03,06,07,11,16,19,25,,,,,,2.6,1.3,2.3*3F
$GPRMC,034030.995,A,2509.0663,N,12146.3167,E,0.0,131.5,151009,,,A*6B
$GPVTG,131.5,T,,,0.0,N,0.0,K,A*46
$GPGSV,3,1,10,13,28,247,19,19,64,001,36,25,69,294,38,03,42,032,38*76
$GPGSV,3,2,10,07,49,316,38,11,41,196,13,06,32,039,28,16,18,085,35*77
$GPGSV,3,3,10,08,11,322,22,23,18,207,*7E
$GPGGA,034031.997,2509.0663,N,12146.3167,E,1,08,1.3,35.84,M,,,,*03
$GPGLL,2509.0663,N,12146.3167,E,034031.997,A,A*55
$GPGSA,A,3,03,06,07,11,13,16,19,25,,,,,2.6,1.3,2.3*3D
$GPRMC,034031.997,A,2509.0663,N,12146.3167,E,0.0,131.5,151009,,,A*68
$GPVTG,131.5,T,,,0.0,N,0.0,K,A*46
$GPGSV,3,1,10,13,28,247,20,19,64,001,36,25,69,294,41,03,42,032,37*7D
$GPGSV,3,2,10,07,49,316,38,11,41,196,17,06,32,039,31,16,18,085,38*76
$GPGSV,3,3,10,08,11,322,22,23,18,207,*7E
$GPGGA,034032.995,2509.0663,N,12146.3167,E,1,08,1.3,35.84,M,,,,*02
$GPGLL,2509.0663,N,12146.3167,E,034032.995,A,A*54
$GPGSA,A,3,03,06,07,11,13,16,19,25,,,,,2.6,1.3,2.3*3D
$GPRMC,034032.995,A,2509.0663,N,12146.3167,E,0.0,131.5,151009,,,A*69
$GPVTG,131.5,T,,,0.0,N,0.0,K,A*46
$GPGSV,3,1,10,13,28,247,19,19,64,001,36,25,69,294,41,03,42,032,37*77
$GPGSV,3,2,10,07,49,316,38,11,41,196,21,06,32,039,34,16,18,085,38*76
$GPGSV,3,3,10,08,11,322,22,23,18,207,*7E
$GPGGA,034033.997,2509.0663,N,12146.3167,E,1,07,1.3,35.84,M,,,,*0E
$GPGLL,2509.0663,N,12146.3167,E,034033.997,A,A*57
$GPGSA,A,3,03,06,07,11,16,19,25,,,,,,2.6,1.3,2.3*3F
$GPRMC,034033.997,A,2509.0663,N,12146.3167,E,0.0,131.5,151009,,,A*6A
$GPVTG,131.5,T,,,0.0,N,0.0,K,A*46
$GPGSV,3,1,10,13,28,247,18,19,64,001,36,25,69,294,41,03,42,032,37*76
$GPGSV,3,2,10,07,49,316,38,11,41,196,22,06,32,039,34,16,18,085,38*75
$GPGSV,3,3,10,08,11,322,24,23,18,207,*78
$GPGGA,034034.995,2509.0663,N,12146.3167,E,1,07,1.3,35.84,M,,,,*0B
$GPGLL,2509.0663,N,12146.3167,E,034034.995,A,A*52
$GPGSA,A,3,03,06,07,11,16,19,25,,,,,,2.6,1.3,2.3*3F
$GPRMC,034034.995,A,2509.0663,N,12146.3167,E,0.0,131.5,151009,,,A*6F
$GPVTG,131.5,T,,,0.0,N,0.0,K,A*46
$GPGSV,3,1,10,13,28,247,17,19,64,001,36,25,69,294,41,03,42,032,37*79
$GPGSV,3,2,10,07,49,316,38,11,41,196,22,06,32,039,34,16,18,085,38*75
$GPGSV,3,3,10,08,11,322,25,23,18,207,*79
$GPGGA,034035.996,2509.0663,N,12146.3167,E,1,07,1.3,35.84,M,,,,*09
$GPGLL,2509.0663,N,12146.3167,E,034035.996,A,A*50
$GPGSA,A,3,03,06,07,11,16,19,25,,,,,,2.6,1.3,2.3*3F
$GPRMC,034035.996,A,2509.0663,N,12146.3167,E,0.0,131.5,151009,,,A*6D
$GPVTG,131.5,T,,,0.0,N,0.0,K,A*46
$GPGSV,3,1,10,19,64,001,36,25,69,294,41,03,42,032,37,07,49,316,38*73
$GPGSV,3,2,10,11,41,196,22,06,32,039,34,16,18,085,40,08,11,322,24*72
$GPGSV,3,3,10,13,28,247,,23,18,207,*7C
$GPGGA,034036.995,2509.0663,N,12146.3167,E,1,07,1.3,35.84,M,,,,*09
$GPGLL,2509.0663,N,12146.3167,E,034036.995,A,A*50
$GPGSA,A,3,03,06,07,11,16,19,25,,,,,,2.6,1.3,2.3*3F
$GPRMC,034036.995,A,2509.0663,N,12146.3167,E,0.0,131.5,151009,,,A*6D
$GPVTG,131.5,T,,,0.0,N,0.0,K,A*46
$GPGSV,3,1,10,19,64,001,36,25,69,294,41,03,42,032,37,07,49,316,38*73
$GPGSV,3,2,10,11,41,196,21,06,32,039,33,16,18,085,39,08,11,322,23*7F
$GPGSV,3,3,10,13,28,247,,23,18,207,*7C
$GPGGA,034037.997,2509.0663,N,12146.3167,E,1,07,1.9,35.84,M,,,,*00
$GPGLL,2509.0663,N,12146.3167,E,034037.997,A,A*53
$GPGSA,A,3,03,06,07,11,16,19,25,,,,,,4.3,1.9,3.8*3C
$GPRMC,034037.997,A,2509.0663,N,12146.3167,E,0.0,131.5,151009,,,A*6E
$GPVTG,131.5,T,,,0.0,N,0.0,K,A*46
$GPGSV,3,1,10,19,64,001,36,25,69,294,41,03,42,032,37,07,49,316,38*73
$GPGSV,3,2,10,11,41,196,21,06,32,039,33,16,18,085,39,08,11,322,23*7F
$GPGSV,3,3,10,13,28,247,,23,18,207,*7C
$GPGGA,034038.995,2509.0652,N,12146.3161,E,1,07,1.9,33.39,M,,,,*09
$GPGLL,2509.0652,N,12146.3161,E,034038.995,A,A*5A
$GPGSA,A,3,03,06,07,11,16,19,25,,,,,,4.3,1.9,3.8*3C
$GPRMC,034038.995,A,2509.0652,N,12146.3161,E,2.4,131.5,151009,,,A*61
$GPVTG,131.5,T,,,2.4,N,4.4,K,A*40
$GPGSV,3,1,10,19,64,001,38,25,69,294,41,03,42,032,37,07,49,316,38*7D
$GPGSV,3,2,10,11,41,196,21,06,32,039,35,16,18,085,36,08,11,322,18*7E
$GPGSV,3,3,10,13,28,247,,23,18,207,*7C
$GPGGA,034039.996,2509.0656,N,12146.3167,E,1,07,1.9,33.04,M,,,,*07
$GPGLL,2509.0656,N,12146.3167,E,034039.996,A,A*5A
$GPGSA,A,3,03,06,07,11,16,19,25,,,,,,4.3,1.9,3.8*3C
$GPRMC,034039.996,A,2509.0656,N,12146.3167,E,3.8,131.5,151009,,,A*6C
$GPVTG,131.5,T,,,3.8,N,7.0,K,A*4A
$GPGSV,3,1,10,19,64,001,38,25,69,294,41,03,42,032,37,07,49,316,40*72
$GPGSV,3,2,10,11,41,196,21,06,32,039,37,16,18,085,35,08,11,322,20*74
$GPGSV,3,3,10,13,28,247,,23,18,207,*7C
$GPGGA,034040.995,2509.0655,N,12146.3180,E,1,07,1.9,33.26,M,,,,*00
$GPGLL,2509.0655,N,12146.3180,E,034040.995,A,A*5D
$GPGSA,A,3,03,06,07,13,16,19,25,,,,,,4.3,1.9,3.8*3E
$GPRMC,034040.995,A,2509.0655,N,12146.3180,E,5.5,120.8,151009,,,A*6D
$GPVTG,120.8,T,,,5.5,N,10.2,K,A*78
$GPGSV,3,1,10,13,28,247,19,19,64,001,39,25,69,294,41,03,42,032,37*78
$GPGSV,3,2,10,07,49,316,40,11,41,196,21,06,32,039,37,16,18,085,33*71
$GPGSV,3,3,10,08,11,322,24,23,18,207,*78
$GPGGA,034041.997,2509.0644,N,12146.3198,E,1,08,1.9,33.46,M,,,,*03
$GPGLL,2509.0644,N,12146.3198,E,034041.997,A,A*57
$GPGSA,A,3,03,06,07,11,13,16,19,25,,,,,4.3,1.9,3.8*3E
$GPRMC,034041.997,A,2509.0644,N,12146.3198,E,8.4,123.3,151009,,,A*63
$GPVTG,123.3,T,,,8.4,N,15.6,K,A*7D
$GPGSV,3,1,10,13,28,247,19,19,64,001,39,25,69,294,41,03,42,032,38*77
$GPGSV,3,2,10,07,49,316,40,11,41,196,22,06,32,039,38,16,18,085,33*7D
$GPGSV,3,3,10,08,11,322,30,23,18,207,*7D
$GPGGA,034042.995,2509.0630,N,12146.3227,E,1,07,1.3,33.40,M,,,,*05
$GPGLL,2509.0630,N,12146.3227,E,034042.995,A,A*52
$GPGSA,A,3,03,06,07,11,13,19,25,,,,,,2.6,1.3,2.3*3A
$GPRMC,034042.995,A,2509.0630,N,12146.3227,E,10.4,119.2,151009,,,A*57
$GPVTG,119.2,T,,,10.4,N,19.2,K,A*44
$GPGSV,3,1,10,13,28,247,21,19,64,001,37,25,69,294,41,03,42,032,37*7D
$GPGSV,3,2,10,07,49,316,40,11,41,196,24,06,32,039,36,16,18,085,33*75
$GPGSV,3,3,10,08,11,322,27,23,18,207,*7B
$GPGGA,034043.997,2509.0608,N,12146.3257,E,1,08,1.3,33.55,M,,,,*01
$GPGLL,2509.0608,N,12146.3257,E,034043.997,A,A*5D
$GPGSA,A,3,03,06,07,11,13,16,19,25,,,,,2.6,1.3,2.3*3D
$GPRMC,034043.997,A,2509.0608,N,12146.3257,E,12.6,124.4,151009,,,A*50
$GPVTG,124.4,T,,,12.6,N,23.4,K,A*43
$GPGSV,3,1,10,13,28,247,21,19,64,001,37,25,69,294,41,03,42,032,37*7D
$GPGSV,3,2,10,07,49,316,40,11,41,196,28,06,32,039,34,16,18,085,34*7C
$GPGSV,3,3,10,23,18,207,,08,12,322,*7D
$GPGGA,034044.995,2509.0599,N,12146.3298,E,1,08,1.3,33.35,M,,,,*0A
$GPGLL,2509.0599,N,12146.3298,E,034044.995,A,A*50
$GPGSA,A,3,03,06,07,11,13,16,19,25,,,,,2.6,1.3,2.3*3D
$GPRMC,034044.995,A,2509.0599,N,12146.3298,E,11.2,107.8,151009,,,A*57
$GPVTG,107.8,T,,,11.2,N,20.7,K,A*49
$GPGSV,3,1,10,13,28,247,24,19,64,001,37,25,69,294,41,03,42,032,37*78
$GPGSV,3,2,10,07,49,316,40,11,41,196,31,06,32,039,32,16,18,085,34*72
$GPGSV,3,3,10,23,18,207,,08,12,322,*7D
$GPGGA,034045.996,2509.0596,N,12146.3331,E,1,08,1.3,33.06,M,,,,*05
$GPGLL,2509.0596,N,12146.3331,E,034045.996,A,A*5F
$GPGSA,A,3,03,06,07,11,13,16,19,25,,,,,2.6,1.3,2.3*3D
$GPRMC,034045.996,A,2509.0596,N,12146.3331,E,10.1,097.7,151009,,,A*5D
$GPVTG,097.7,T,,,10.1,N,18.8,K,A*48
$GPGSV,3,1,10,13,28,247,27,19,64,001,37,25,69,294,41,03,42,032,37*7B
$GPGSV,3,2,10,07,49,316,40,11,41,196,33,06,32,039,33,16,18,085,33*76
$GPGSV,3,3,10,08,12,322,19,23,18,207,*75
$GPGGA,034046.994,2509.0598,N,12146.3362,E,1,08,1.3,32.96,M,,,,*04
$GPGLL,2509.0598,N,12146.3362,E,034046.994,A,A*56
$GPGSA,A,3,03,06,07,11,13,16,19,25,,,,,2.6,1.3,2.3*3D
$GPRMC,034046.994,A,2509.0598,N,12146.3362,E,9.6,089.8,151009,,,A*6B
$GPVTG,089.8,T,,,9.6,N,17.8,K,A*78
$GPGSV,3,1,10,13,28,247,32,19,64,001,37,25,69,294,40,03,42,032,37*7E
$GPGSV,3,2,10,07,49,316,38,11,41,196,33,06,32,039,35,16,18,085,33*7F
$GPGSV,3,3,10,08,12,322,23,23,18,207,*7C
$GPGGA,034047.997,2509.0605,N,12146.3396,E,1,08,1.3,32.78,M,,,,*0A
$GPGLL,2509.0605,N,12146.3396,E,034047.997,A,A*58
$GPGSA,A,3,03,06,07,11,13,16,19,25,,,,,2.6,1.3,2.3*3D
$GPRMC,034047.997,A,2509.0605,N,12146.3396,E,11.0,078.7,151009,,,A*5B
$GPVTG,078.7,T,,,11.0,N,20.4,K,A*4E
$GPGSV,3,1,10,13,28,247,36,19,64,001,38,25,69,294,38,03,42,032,36*7B
$GPGSV,3,2,10,07,49,316,38,11,41,196,35,06,32,039,36,16,18,085,33*7A
$GPGSV,3,3,10,08,12,322,22,23,18,207,*7D
$GPGGA,034048.995,2509.0609,N,12146.3433,E,1,08,1.3,33.01,M,,,,*0C
$GPGLL,2509.0609,N,12146.3433,E,034048.995,A,A*51
$GPGSA,A,3,03,06,07,11,13,16,19,25,,,,,2.6,1.3,2.3*3D
$GPRMC,034048.995,A,2509.0609,N,12146.3433,E,12.6,082.3,151009,,,A*56
$GPVTG,082.3,T,,,12.6,N,23.3,K,A*4E
$GPGSV,3,1,10,13,28,247,38,19,64,001,38,25,69,294,38,03,42,032,34*77
$GPGSV,3,2,10,07,49,316,38,11,41,196,36,06,32,039,32,16,18,085,31*7F
$GPGSV,3,3,10,08,12,322,20,23,18,207,*7F
$GPGGA,034049.996,2509.0613,N,12146.3475,E,1,09,1.3,32.77,M,,,,*06
$GPGLL,2509.0613,N,12146.3475,E,034049.996,A,A*5A
$GPGSA,A,3,03,06,07,11,13,16,19,23,25,,,,2.6,1.3,2.3*3C
$GPRMC,034049.996,A,2509.0613,N,12146.3475,E,14.6,083.8,151009,,,A*51
$GPVTG,083.8,T,,,14.6,N,27.1,K,A*44
$GPGSV,3,1,10,13,28,247,38,19,64,001,38,25,69,294,38,03,42,032,34*77
$GPGSV,3,2,10,07,49,316,38,11,41,196,36,23,18,207,33,06,32,039,32*73
$GPGSV,3,3,10,16,18,085,29,08,12,322,22*78
$GPGGA,034050.995,2509.0619,N,12146.3526,E,1,09,1.3,32.77,M,,,,*00
$GPGLL,2509.0619,N,12146.3526,E,034050.995,A,A*5C
$GPGSA,A,3,03,06,07,11,13,16,19,23,25,,,,2.6,1.3,2.3*3C
$GPRMC,034050.995,A,2509.0619,N,12146.3526,E,16.1,083.1,151009,,,A*5B
$GPVTG,083.1,T,,,16.1,N,29.7,K,A*40
$GPGSV,3,1,10,13,28,247,38,19,64,002,38,25,69,294,38,03,41,032,34*77
$GPGSV,3,2,10,07,49,316,38,11,41,196,36,23,18,207,27,06,32,039,31*75
$GPGSV,3,3,10,16,18,085,28,08,12,322,26*7D
$GPGGA,034051.997,2509.0625,N,12146.3582,E,1,09,1.3,32.66,M,,,,*02
$GPGLL,2509.0625,N,12146.3582,E,034051.997,A,A*5E
$GPGSA,A,3,03,06,07,11,13,16,19,23,25,,,,2.6,1.3,2.3*3C
$GPRMC,034051.997,A,2509.0625,N,12146.3582,E,16.7,083.1,151009,,,A*5F
$GPVTG,083.1,T,,,16.7,N,31.0,K,A*48
$GPGSV,3,1,10,13,28,247,38,19,64,002,38,25,69,294,38,03,41,032,34*77
$GPGSV,3,2,10,07,49,316,36,11,41,196,36,23,18,207,29,06,32,039,35*71
$GPGSV,3,3,10,16,18,085,28,08,12,322,23*78
$GPGGA,034052.995,2509.0632,N,12146.3635,E,1,09,1.3,32.76,M,,,,*0B
$GPGLL,2509.0632,N,12146.3635,E,034052.995,A,A*56
$GPGSA,A,3,03,06,07,11,13,16,19,23,25,,,,2.5,1.3,2.1*3D
$GPRMC,034052.995,A,2509.0632,N,12146.3635,E,17.7,081.9,151009,,,A*5C
$GPVTG,081.9,T,,,17.7,N,32.7,K,A*47
$GPGSV,3,1,10,13,28,247,38,19,64,002,36,25,69,294,38,03,41,032,34*79
$GPGSV,3,2,10,07,49,316,38,11,41,196,36,23,18,207,29,06,32,039,35*7F
$GPGSV,3,3,10,16,18,085,28,08,12,322,18*70
$GPGGA,034053.997,2509.0638,N,12146.3689,E,1,09,1.3,33.00,M,,,,*05
$GPGLL,2509.0638,N,12146.3689,E,034053.997,A,A*58
$GPGSA,A,3,03,06,07,11,13,16,19,23,25,,,,2.5,1.3,2.1*3D
$GPRMC,034053.997,A,2509.0638,N,12146.3689,E,18.8,082.7,151009,,,A*5F
$GPVTG,082.7,T,,,18.8,N,34.9,K,A*42
$GPGSV,3,1,10,13,28,247,38,19,64,002,36,25,69,294,38,03,41,032,34*79
$GPGSV,3,2,10,07,49,316,38,11,41,196,31,23,18,207,26,06,32,039,35*77
$GPGSV,3,3,10,16,18,085,28,08,12,322,14*7C
$GPGGA,034054.995,2509.0647,N,12146.3754,E,1,09,1.3,32.76,M,,,,*09
$GPGLL,2509.0647,N,12146.3754,E,034054.995,A,A*54
$GPGSA,A,3,03,06,07,11,13,16,19,23,25,,,,2.5,1.3,2.1*3D
$GPRMC,034054.995,A,2509.0647,N,12146.3754,E,19.4,081.9,151009,,,A*53
$GPVTG,081.9,T,,,19.4,N,35.9,K,A*43
$GPGSV,3,1,10,13,28,247,38,19,64,002,36,25,69,294,38,03,41,032,34*79
$GPGSV,3,2,10,07,49,316,38,11,41,196,31,23,18,207,24,06,32,039,29*78
$GPGSV,3,3,10,16,18,085,28,08,12,322,*79
$GPGGA,034055.996,2509.0653,N,12146.3818,E,1,08,1.3,32.55,M,,,,*09
$GPGLL,2509.0653,N,12146.3818,E,034055.996,A,A*54
$GPGSA,A,3,03,07,11,13,16,19,23,25,,,,,2.5,1.3,2.1*3B
$GPRMC,034055.996,A,2509.0653,N,12146.3818,E,20.3,084.0,151009,,,A*52
$GPVTG,084.0,T,,,20.3,N,37.6,K,A*4F
$GPGSV,3,1,10,13,28,247,38,19,64,002,36,25,69,294,38,03,41,032,29*75
$GPGSV,3,2,10,07,49,316,38,11,41,196,32,23,18,207,22,06,32,039,23*77
$GPGSV,3,3,10,16,18,085,29,08,12,322,*78
$GPGGA,034056.994,2509.0655,N,12146.3881,E,1,07,1.3,32.45,M,,,,*00
$GPGLL,2509.0655,N,12146.3881,E,034056.994,A,A*53
$GPGSA,A,3,07,11,13,16,19,23,25,,,,,,2.5,1.3,2.1*38
$GPRMC,034056.994,A,2509.0655,N,12146.3881,E,20.6,086.8,151009,,,A*5A
$GPVTG,086.8,T,,,20.6,N,38.2,K,A*4B
$GPGSV,3,1,10,13,28,247,38,19,64,002,36,25,69,294,38,03,41,032,24*78
$GPGSV,3,2,10,07,49,316,36,11,41,196,34,23,18,207,23,06,32,039,19*77
$GPGSV,3,3,10,16,18,085,30,08,12,322,*70
$GPGGA,034057.997,2509.0660,N,12146.3947,E,1,08,1.4,32.19,M,,,,*0E
$GPGLL,2509.0660,N,12146.3947,E,034057.997,A,A*5C
$GPGSA,A,3,06,07,11,13,16,19,23,25,,,,,2.7,1.4,2.3*39
$GPRMC,034057.997,A,2509.0660,N,12146.3947,E,20.5,085.9,151009,,,A*54
$GPVTG,085.9,T,,,20.5,N,37.9,K,A*4E
$GPGSV,3,1,10,13,28,247,39,19,64,002,35,25,69,294,39,03,41,032,20*7F
$GPGSV,3,2,10,07,49,316,36,11,41,196,34,23,18,207,24,06,32,039,22*78
$GPGSV,3,3,10,16,18,085,31,08,12,322,*71
$GPGGA,034058.995,2509.0659,N,12146.4020,E,1,09,1.4,32.36,M,,,,*0A
$GPGLL,2509.0659,N,12146.4020,E,034058.995,A,A*54
$GPGSA,A,3,03,06,07,11,13,16,19,23,25,,,,2.7,1.4,2.3*3A
$GPRMC,034058.995,A,2509.0659,N,12146.4020,E,20.8,089.6,151009,,,A*52
$GPVTG,089.6,T,,,20.8,N,38.5,K,A*43
$GPGSV,3,1,10,13,28,247,38,19,64,002,38,25,69,294,38,03,41,032,25*77
$GPGSV,3,2,10,07,49,316,32,11,41,196,34,23,18,207,27,06,32,039,28*75
$GPGSV,3,3,10,16,18,085,32,08,12,322,*72
$GPGGA,034059.996,2509.0655,N,12146.4086,E,1,09,1.4,32.25,M,,,,*0A
$GPGLL,2509.0655,N,12146.4086,E,034059.996,A,A*56
$GPGSA,A,3,03,06,07,11,13,16,19,23,25,,,,2.7,1.4,2.3*3A
$GPRMC,034059.996,A,2509.0655,N,12146.4086,E,21.3,092.6,151009,,,A*50
$GPVTG,092.6,T,,,21.3,N,39.5,K,A*42
$GPGSV,3,1,10,13,28,247,39,19,64,002,39,25,69,294,39,03,41,032,32*70
$GPGSV,3,2,10,07,49,316,31,11,41,196,34,23,18,207,26,06,32,039,34*7A
$GPGSV,3,3,10,16,18,085,32,08,12,322,*72
$GPGGA,034100.995,2509.0649,N,12146.4158,E,1,09,1.4,32.18,M,,,,*05
$GPGLL,2509.0649,N,12146.4158,E,034100.995,A,A*57
$GPGSA,A,3,03,06,07,11,13,16,19,23,25,,,,2.7,1.4,2.3*3A
$GPRMC,034100.995,A,2509.0649,N,12146.4158,E,21.4,095.0,151009,,,A*57
$GPVTG,095.0,T,,,21.4,N,39.7,K,A*46
$GPGSV,3,1,10,13,28,247,39,19,64,002,39,25,69,294,39,03,41,032,36*74
$GPGSV,3,2,10,07,49,316,33,11,41,196,34,23,18,207,26,06,32,039,35*79
$GPGSV,3,3,10,16,18,085,32,08,12,322,*72
$GPGGA,034101.997,2509.0643,N,12146.4226,E,1,09,1.4,32.40,M,,,,*0B
$GPGLL,2509.0643,N,12146.4226,E,034101.997,A,A*54
$GPGSA,A,3,03,06,07,11,13,16,19,23,25,,,,2.7,1.4,2.3*3A
$GPRMC,034101.997,A,2509.0643,N,12146.4226,E,21.6,095.3,151009,,,A*55
$GPVTG,095.3,T,,,21.6,N,40.1,K,A*4F
$GPGSV,3,1,10,13,28,247,39,19,64,002,39,25,69,294,39,03,41,032,36*74
$GPGSV,3,2,10,07,49,316,39,11,41,196,34,23,18,207,24,06,32,039,34*70
$GPGSV,3,3,10,16,18,085,32,08,12,322,*72
$GPGGA,034102.995,2509.0637,N,12146.4289,E,1,09,1.3,32.21,M,,,,*0C
$GPGLL,2509.0637,N,12146.4289,E,034102.995,A,A*53
$GPGSA,A,3,03,06,07,11,13,16,19,23,25,,,,2.5,1.3,2.1*3D
$GPRMC,034102.995,A,2509.0637,N,12146.4289,E,21.9,095.7,151009,,,A*59
$GPVTG,095.7,T,,,21.9,N,40.5,K,A*40
$GPGSV,3,1,10,13,28,247,39,19,64,002,39,25,69,294,39,03,41,032,34*76
$GPGSV,3,2,10,07,49,316,39,11,41,196,34,23,18,207,24,06,32,039,34*70
$GPGSV,3,3,10,16,18,085,32,08,12,322,*72
$GPGGA,034103.996,2509.0630,N,12146.4356,E,1,09,1.3,32.03,M,,,,*0A
$GPGLL,2509.0630,N,12146.4356,E,034103.996,A,A*55
$GPGSA,A,3,03,06,07,11,13,16,19,23,25,,,,2.5,1.3,2.1*3D
$GPRMC,034103.996,A,2509.0630,N,12146.4356,E,22.5,097.1,151009,,,A*54
$GPVTG,097.1,T,,,22.5,N,41.7,K,A*48
$GPGSV,3,1,10,13,28,247,39,19,64,002,39,25,69,294,39,03,41,032,34*76
$GPGSV,3,2,10,07,49,316,39,11,41,196,34,23,18,207,23,06,32,039,34*77
$GPGSV,3,3,10,16,18,085,32,08,12,322,*72
$GPGGA,034104.995,2509.0621,N,12146.4425,E,1,08,1.3,32.11,M,,,,*0F
$GPGLL,2509.0621,N,12146.4425,E,034104.995,A,A*52
$GPGSA,A,3,03,06,07,11,13,16,19,25,,,,,2.5,1.3,2.1*3C
$GPRMC,034104.995,A,2509.0621,N,12146.4425,E,22.9,097.5,151009,,,A*5B
$GPVTG,097.5,T,,,22.9,N,42.4,K,A*40
$GPGSV,3,1,10,13,28,247,39,19,64,002,37,25,69,294,39,03,41,032,34*78
$GPGSV,3,2,10,07,49,316,39,11,41,196,34,23,18,207,15,06,32,039,34*72
$GPGSV,3,3,10,16,18,085,32,08,12,322,14*77
$GPGGA,034105.997,2509.0613,N,12146.4495,E,1,08,1.3,31.95,M,,,,*09
$GPGLL,2509.0613,N,12146.4495,E,034105.997,A,A*5B
$GPGSA,A,3,03,06,07,11,13,16,19,25,,,,,2.5,1.3,2.1*3C
$GPRMC,034105.997,A,2509.0613,N,12146.4495,E,22.7,097.1,151009,,,A*58
$GPVTG,097.1,T,,,22.7,N,42.0,K,A*4E
$GPGSV,3,1,10,13,28,247,39,19,64,002,37,25,69,294,39,03,41,032,32*7E
$GPGSV,3,2,10,07,49,316,39,11,41,196,34,23,18,206,15,06,32,039,33*74
$GPGSV,3,3,10,16,18,085,32,08,12,322,22*72
$GPGGA,034106.995,2509.0605,N,12146.4562,E,1,09,1.3,31.90,M,,,,*02
$GPGLL,2509.0605,N,12146.4562,E,034106.995,A,A*54
$GPGSA,A,3,03,06,07,11,13,16,19,23,25,,,,2.5,1.3,2.1*3D
$GPRMC,034106.995,A,2509.0605,N,12146.4562,E,22.5,098.0,151009,,,A*5B
$GPVTG,098.0,T,,,22.5,N,41.7,K,A*46
$GPGSV,3,1,10,13,28,247,39,19,64,002,37,25,69,294,39,03,41,032,31*7D
$GPGSV,3,2,10,07,49,316,39,11,41,196,34,23,18,206,18,06,32,039,32*78
$GPGSV,3,3,10,16,18,085,31,08,12,322,27*74
$GPGGA,034107.997,2509.0597,N,12146.4634,E,1,09,1.3,31.84,M,,,,*0C
$GPGLL,2509.0597,N,12146.4634,E,034107.997,A,A*5F
$GPGSA,A,3,03,06,07,11,13,16,19,23,25,,,,2.5,1.3,2.1*3D
$GPRMC,034107.997,A,2509.0597,N,12146.4634,E,22.5,097.2,151009,,,A*5D
$GPVTG,097.2,T,,,22.5,N,41.7,K,A*4B
$GPGSV,3,1,10,13,28,247,39,19,64,002,37,25,69,294,39,03,41,032,30*7C
$GPGSV,3,2,10,07,49,316,39,11,41,196,34,23,18,206,25,06,32,039,30*74
$GPGSV,3,3,10,16,18,085,30,08,12,322,30*73
$GPGGA,034108.995,2509.0588,N,12146.4707,E,1,09,1.3,31.41,M,,,,*07
$GPGLL,2509.0588,N,12146.4707,E,034108.995,A,A*5D
$GPGSA,A,3,03,06,07,11,13,16,19,23,25,,,,2.5,1.3,2.1*3D
$GPRMC,034108.995,A,2509.0588,N,12146.4707,E,22.6,097.5,151009,,,A*5B
$GPVTG,097.5,T,,,22.6,N,41.9,K,A*41
$GPGSV,3,1,10,13,28,247,39,19,64,002,37,25,69,294,39,03,41,032,33*7F
$GPGSV,3,2,10,07,49,316,39,11,41,196,34,23,18,206,27,06,32,039,30*76
$GPGSV,3,3,10,16,18,085,28,08,12,322,31*7B
$GPGGA,034109.996,2509.0579,N,12146.4776,E,1,09,1.3,31.00,M,,,,*08
$GPGLL,2509.0579,N,12146.4776,E,034109.996,A,A*57
$GPGSA,A,3,03,06,07,11,13,16,19,23,25,,,,2.5,1.3,2.1*3D
$GPRMC,034109.996,A,2509.0579,N,12146.4776,E,22.8,097.8,151009,,,A*52
$GPVTG,097.8,T,,,22.8,N,42.2,K,A*4A
$GPGSV,3,1,10,13,28,247,39,19,64,002,37,25,69,294,39,03,41,032,33*7F
$GPGSV,3,2,10,07,49,316,39,11,41,196,34,23,18,206,27,06,32,039,30*76
$GPGSV,3,3,10,16,18,085,28,08,12,322,32*78
$GPGGA,034110.995,2509.0574,N,12146.4849,E,1,09,1.3,31.11,M,,,,*0D
$GPGLL,2509.0574,N,12146.4849,E,034110.995,A,A*52
$GPGSA,A,3,03,06,07,11,13,16,19,23,25,,,,2.5,1.3,2.1*3D
$GPRMC,034110.995,A,2509.0574,N,12146.4849,E,23.0,095.2,151009,,,A*56
$GPVTG,095.2,T,,,23.0,N,42.5,K,A*4C
$GPGSV,3,1,10,13,28,246,39,19,64,002,37,25,69,294,39,03,41,033,32*7E
$GPGSV,3,2,10,07,49,316,39,11,41,196,34,23,18,206,28,06,32,039,30*79
$GPGSV,3,3,10,16,18,085,29,08,12,322,30*7B
$GPGGA,034111.997,2509.0565,N,12146.4914,E,1,09,1.3,31.13,M,,,,*05
$GPGLL,2509.0565,N,12146.4914,E,034111.997,A,A*58
$GPGSA,A,3,03,06,07,11,13,16,19,23,25,,,,2.5,1.3,2.1*3D
$GPRMC,034111.997,A,2509.0565,N,12146.4914,E,23.1,097.8,151009,,,A*55
$GPVTG,097.8,T,,,23.1,N,42.9,K,A*49
$GPGSV,3,1,10,13,28,246,38,19,64,002,38,25,69,294,38,03,41,033,30*73
$GPGSV,3,2,10,07,49,316,38,11,41,196,33,23,18,206,29,06,32,039,30*7E
$GPGSV,3,3,10,16,18,085,29,08,12,322,29*73
$GPGGA,034112.995,2509.0557,N,12146.4985,E,1,09,1.3,31.18,M,,,,*06
$GPGLL,2509.0557,N,12146.4985,E,034112.995,A,A*50
$GPGSA,A,3,03,06,07,11,13,16,19,23,25,,,,2.5,1.3,2.1*3D
$GPRMC,034112.995,A,2509.0557,N,12146.4985,E,23.2,097.5,151009,,,A*53
$GPVTG,097.5,T,,,23.2,N,43.0,K,A*4F
$GPGSV,3,1,10,13,28,246,38,19,64,002,38,25,69,294,38,03,41,033,30*73
$GPGSV,3,2,10,07,49,316,38,11,41,196,33,23,18,206,29,06,32,039,30*7E
$GPGSV,3,3,10,16,18,085,29,08,12,322,29*73
$GPGGA,034113.996,2509.0550,N,12146.5059,E,1,08,1.3,31.21,M,,,,*01
$GPGLL,2509.0550,N,12146.5059,E,034113.996,A,A*5C
$GPGSA,A,3,03,06,07,11,13,16,19,25,,,,,2.5,1.3,2.1*3C
$GPRMC,034113.996,A,2509.0550,N,12146.5059,E,23.0,096.4,151009,,,A*5D
$GPVTG,096.4,T,,,23.0,N,42.6,K,A*4A
$GPGSV,3,1,10,13,28,246,38,19,64,002,38,25,69,294,38,03,41,033,33*70
$GPGSV,3,2,10,07,49,316,38,11,41,196,30,23,18,206,21,06,32,039,30*75
$GPGSV,3,3,10,16,18,085,29,08,12,322,31*7A
$GPGGA,034114.995,2509.0547,N,12146.5134,E,1,08,1.3,31.29,M,,,,*01
$GPGLL,2509.0547,N,12146.5134,E,034114.995,A,A*54
$GPGSA,A,3,03,06,07,11,13,16,19,25,,,,,2.5,1.3,2.1*3C
$GPRMC,034114.995,A,2509.0547,N,12146.5134,E,22.8,093.3,151009,,,A*5E
$GPVTG,093.3,T,,,22.8,N,42.2,K,A*45
$GPGSV,3,1,10,13,28,246,38,19,64,002,38,25,69,294,38,03,41,033,35*76
$GPGSV,3,2,10,07,49,316,38,11,41,196,30,23,18,206,12,06,32,039,30*75
$GPGSV,3,3,10,16,18,085,29,08,12,322,31*7A
$GPGGA,034115.997,2509.0541,N,12146.5201,E,1,08,1.3,31.35,M,,,,*0C
$GPGLL,2509.0541,N,12146.5201,E,034115.997,A,A*54
$GPGSA,A,3,03,06,07,11,13,16,19,25,,,,,2.5,1.3,2.1*3C
$GPRMC,034115.997,A,2509.0541,N,12146.5201,E,22.7,095.3,151009,,,A*57
$GPVTG,095.3,T,,,22.7,N,42.0,K,A*4E
$GPGSV,3,1,10,13,28,246,36,19,64,002,38,25,69,294,38,03,41,033,35*78
$GPGSV,3,2,10,07,49,316,38,11,41,196,26,06,32,039,31,16,18,085,30*7C
$GPGSV,3,3,10,08,12,322,31,23,18,206,*7E
$GPGGA,034116.995,2509.0532,N,12146.5270,E,1,08,1.3,31.28,M,,,,*03
$GPGLL,2509.0532,N,12146.5270,E,034116.995,A,A*57
$GPGSA,A,3,03,06,07,11,13,16,19,25,,,,,2.5,1.3,2.1*3C
$GPRMC,034116.995,A,2509.0532,N,12146.5270,E,22.4,097.2,151009,,,A*54
$GPVTG,097.2,T,,,22.4,N,41.5,K,A*48
$GPGSV,3,1,10,13,28,246,38,19,64,002,38,25,69,294,38,03,41,033,35*76
$GPGSV,3,2,10,07,49,316,38,11,41,196,26,06,32,039,33,16,18,085,30*7E
$GPGSV,3,3,10,08,12,322,31,23,18,206,*7E
$GPGGA,034117.997,2509.0530,N,12146.5338,E,1,07,1.3,31.36,M,,,,*0F
$GPGLL,2509.0530,N,12146.5338,E,034117.997,A,A*5B
$GPGSA,A,3,03,06,07,13,16,19,25,,,,,,2.6,1.3,2.3*3D
$GPRMC,034117.997,A,2509.0530,N,12146.5338,E,22.1,093.0,151009,,,A*5B
$GPVTG,093.0,T,,,22.1,N,40.8,K,A*47
$GPGSV,3,1,10,13,28,246,38,19,64,002,38,25,69,294,38,03,41,033,35*76
$GPGSV,3,2,10,07,49,316,38,06,32,039,35,16,18,085,30,08,12,322,32*7E
$GPGSV,3,3,10,11,41,196,,23,18,206,*7F
$GPGGA,034118.995,2509.0534,N,12146.5403,E,1,08,1.3,31.46,M,,,,*01
$GPGLL,2509.0534,N,12146.5403,E,034118.995,A,A*5D
$GPGSA,A,3,03,06,07,11,13,16,19,25,,,,,2.6,1.3,2.3*3D
$GPRMC,034118.995,A,2509.0534,N,12146.5403,E,21.5,087.8,151009,,,A*57
$GPVTG,087.8,T,,,21.5,N,39.9,K,A*42
$GPGSV,3,1,10,13,28,246,40,19,64,002,38,25,69,294,38,03,41,033,35*79
$GPGSV,3,2,10,07,49,316,37,11,41,196,26,06,32,039,37,16,18,085,29*7D
$GPGSV,3,3,10,08,12,322,32,23,18,206,*7D
$GPGGA,034119.996,2509.0542,N,12146.5471,E,1,08,1.3,31.21,M,,,,*06
$GPGLL,2509.0542,N,12146.5471,E,034119.996,A,A*5B
$GPGSA,A,3,03,06,07,11,13,16,19,25,,,,,2.6,1.3,2.3*3D
$GPRMC,034119.996,A,2509.0542,N,12146.5471,E,20.4,083.7,151009,,,A*5A
$GPVTG,083.7,T,,,20.4,N,37.8,K,A*46
$GPGSV,3,1,10,13,28,246,40,19,64,002,38,25,69,294,38,03,41,033,36*7A
$GPGSV,3,2,10,07,49,316,37,11,41,196,31,06,32,039,38,16,18,085,30*7C
$GPGSV,3,3,10,08,12,322,32,23,18,206,*7D
$GPGGA,034120.995,2509.0557,N,12146.5531,E,1,08,1.3,31.13,M,,,,*0F
$GPGLL,2509.0557,N,12146.5531,E,034120.995,A,A*53
$GPGSA,A,3,03,06,07,11,13,16,19,25,,,,,2.6,1.3,2.3*3D
$GPRMC,034120.995,A,2509.0557,N,12146.5531,E,19.0,076.5,151009,,,A*54
$GPVTG,076.5,T,,,19.0,N,35.2,K,A*48
$GPGSV,3,1,10,13,28,246,40,19,64,002,38,25,69,293,38,03,41,033,36*7D
$GPGSV,3,2,10,07,49,316,37,11,41,196,36,06,32,039,35,16,18,085,30*76
$GPGSV,3,3,10,08,12,322,31,23,18,206,*7E
$GPGGA,034121.997,2509.0576,N,12146.5584,E,1,08,1.3,31.09,M,,,,*0A
$GPGLL,2509.0576,N,12146.5584,E,034121.997,A,A*5D
$GPGSA,A,3,03,06,07,11,13,16,19,25,,,,,2.6,1.3,2.3*3D
$GPRMC,034121.997,A,2509.0576,N,12146.5584,E,17.4,070.1,151009,,,A*52
$GPVTG,070.1,T,,,17.4,N,32.3,K,A*46
$GPGSV,3,1,10,13,28,246,39,19,64,002,36,25,69,293,39,03,41,033,36*7C
$GPGSV,3,2,10,07,49,316,39,11,41,196,39,06,32,039,33,16,18,085,30*71
$GPGSV,3,3,10,08,12,322,27,23,18,206,*79
$GPGGA,034122.995,2509.0594,N,12146.5636,E,1,09,1.3,31.07,M,,,,*02
$GPGLL,2509.0594,N,12146.5636,E,034122.995,A,A*5A
$GPGSA,A,3,03,06,07,11,13,16,19,23,25,,,,2.6,1.3,2.3*3C
$GPRMC,034122.995,A,2509.0594,N,12146.5636,E,15.9,068.6,151009,,,A*54
$GPVTG,068.6,T,,,15.9,N,29.4,K,A*4A
$GPGSV,3,1,10,13,28,246,40,19,64,002,36,25,69,293,40,03,41,033,36*7C
$GPGSV,3,2,10,07,49,316,40,11,41,196,40,23,18,206,24,06,32,039,33*7B
$GPGSV,3,3,10,16,18,085,30,08,12,322,25*77
$GPGGA,034123.996,2509.0613,N,12146.5676,E,1,09,1.3,31.21,M,,,,*0C
$GPGLL,2509.0613,N,12146.5676,E,034123.996,A,A*50
$GPGSA,A,3,03,06,07,11,13,16,19,23,25,,,,2.6,1.3,2.3*3C
$GPRMC,034123.996,A,2509.0613,N,12146.5676,E,14.0,064.1,151009,,,A*5D
$GPVTG,064.1,T,,,14.0,N,25.9,K,A*48
$GPGSV,3,1,10,13,28,246,41,19,64,002,36,25,69,293,41,03,41,033,36*7C
$GPGSV,3,2,10,07,49,316,41,11,41,196,41,23,18,206,30,06,32,039,32*7F
$GPGSV,3,3,10,16,18,085,30,08,12,322,25*77
$GPGGA,034124.995,2509.0627,N,12146.5711,E,1,09,1.3,31.75,M,,,,*0E
$GPGLL,2509.0627,N,12146.5711,E,034124.995,A,A*53
$GPGSA,A,3,03,06,07,11,13,16,19,23,25,,,,2.6,1.3,2.3*3C
$GPRMC,034124.995,A,2509.0627,N,12146.5711,E,11.9,065.1,151009,,,A*53
$GPVTG,065.1,T,,,11.9,N,22.0,K,A*4B
$GPGSV,3,1,10,13,28,246,41,19,64,002,36,25,69,293,39,03,41,033,35*70
$GPGSV,3,2,10,07,49,316,38,11,41,196,40,23,18,206,37,06,32,039,33*76
$GPGSV,3,3,10,16,18,085,30,08,12,322,30*73
$GPGGA,034125.997,2509.0631,N,12146.5743,E,1,09,1.3,32.20,M,,,,*0E
$GPGLL,2509.0631,N,12146.5743,E,034125.997,A,A*50
$GPGSA,A,3,03,06,07,11,13,16,19,23,25,,,,2.6,1.3,2.3*3C
$GPRMC,034125.997,A,2509.0631,N,12146.5743,E,9.1,075.8,151009,,,A*69
$GPVTG,075.8,T,,,9.1,N,16.9,K,A*7C
$GPGSV,3,1,10,13,28,246,39,19,64,002,39,25,69,293,39,03,41,033,36*73
$GPGSV,3,2,10,07,49,316,39,11,41,196,39,23,18,206,36,06,31,039,34*7C
$GPGSV,3,3,10,16,18,085,30,08,12,322,31*72
$GPGGA,034126.995,2509.0623,N,12146.5769,E,1,09,1.3,32.16,M,,,,*01
$GPGLL,2509.0623,N,12146.5769,E,034126.995,A,A*5A
$GPGSA,A,3,03,06,07,11,13,16,19,23,25,,,,2.6,1.3,2.3*3C
$GPRMC,034126.995,A,2509.0623,N,12146.5769,E,7.9,095.3,151009,,,A*60
$GPVTG,095.3,T,,,7.9,N,14.6,K,A*72
$GPGSV,3,1,10,13,28,246,39,19,64,002,39,25,69,293,39,03,41,033,35*70
$GPGSV,3,2,10,07,49,316,39,11,41,196,36,23,18,206,34,06,31,039,35*70
$GPGSV,3,3,10,16,18,085,31,08,12,322,31*73
$GPGGA,034127.997,2509.0609,N,12146.5785,E,1,09,1.3,32.06,M,,,,*09
$GPGLL,2509.0609,N,12146.5785,E,034127.997,A,A*53
$GPGSA,A,3,03,06,07,11,13,16,19,23,25,,,,2.5,1.3,2.1*3D
$GPRMC,034127.997,A,2509.0609,N,12146.5785,E,7.8,124.5,151009,,,A*65
$GPVTG,124.5,T,,,7.8,N,14.4,K,A*7C
$GPGSV,3,1,10,13,28,246,37,19,64,002,38,25,69,293,39,03,41,033,37*7D
$GPGSV,3,2,10,07,49,316,40,11,41,196,36,23,18,206,31,06,31,039,36*78
$GPGSV,3,3,10,16,18,085,33,08,12,322,34*74
$GPGGA,034128.995,2509.0589,N,12146.5798,E,1,09,1.3,32.03,M,,,,*06
$GPGLL,2509.0589,N,12146.5798,E,034128.995,A,A*59
$GPGSA,A,3,03,06,07,11,13,16,19,23,25,,,,2.5,1.3,2.1*3D
$GPRMC,034128.995,A,2509.0589,N,12146.5798,E,7.6,134.8,151009,,,A*6D
$GPVTG,134.8,T,,,7.6,N,14.1,K,A*7B
$GPGSV,3,1,10,13,28,246,34,19,64,002,38,25,69,293,40,03,41,033,37*70
$GPGSV,3,2,10,07,49,316,40,11,41,196,35,23,18,206,31,06,31,039,33*7E
$GPGSV,3,3,10,16,18,085,34,08,12,322,34*73
$GPGGA,034129.996,2509.0565,N,12146.5802,E,1,09,1.3,32.16,M,,,,*0E
$GPGLL,2509.0565,N,12146.5802,E,034129.996,A,A*55
$GPGSA,A,3,03,06,07,11,13,16,19,23,25,,,,2.5,1.3,2.1*3D
$GPRMC,034129.996,A,2509.0565,N,12146.5802,E,7.5,150.0,151009,,,A*68
$GPVTG,150.0,T,,,7.5,N,14.0,K,A*73
$GPGSV,3,1,10,13,28,246,30,19,64,002,39,25,69,293,39,03,41,033,39*75
$GPGSV,3,2,10,07,49,316,39,11,41,196,34,23,18,206,32,06,31,039,33*72
$GPGSV,3,3,10,16,18,085,34,08,12,322,35*72
$GPGGA,034130.994,2509.0546,N,12146.5793,E,1,09,1.3,32.01,M,,,,*04
$GPGLL,2509.0546,N,12146.5793,E,034130.994,A,A*59
$GPGSA,A,3,03,06,07,11,13,16,19,23,25,,,,2.5,1.3,2.1*3D
$GPRMC,034130.994,A,2509.0546,N,12146.5793,E,8.1,191.7,151009,,,A*65
$GPVTG,191.7,T,,,8.1,N,15.0,K,A*73
$GPGSV,3,1,10,13,28,246,29,19,64,002,40,25,69,293,40,03,41,033,40*73
$GPGSV,3,2,10,07,49,316,40,11,41,196,34,23,18,206,33,06,31,039,34*7A
$GPGSV,3,3,10,16,18,085,33,08,12,322,33*73
$GPGGA,034131.997,2509.0523,N,12146.5778,E,1,09,1.3,31.84,M,,,,*0E
$GPGLL,2509.0523,N,12146.5778,E,034131.997,A,A*5D
$GPGSA,A,3,03,06,07,11,13,16,19,23,25,,,,2.5,1.3,2.1*3D
$GPRMC,034131.997,A,2509.0523,N,12146.5778,E,9.2,206.4,151009,,,A*6D
$GPVTG,206.4,T,,,9.2,N,17.0,K,A*7D
$GPGSV,3,1,10,13,28,246,31,19,64,002,39,25,69,293,40,03,41,033,41*75
$GPGSV,3,2,10,07,49,316,39,11,41,196,37,23,18,206,31,06,31,039,39*78
$GPGSV,3,3,10,16,18,085,34,08,12,322,31*76
$GPGGA,034132.995,2509.0500,N,12146.5758,E,1,09,1.3,31.76,M,,,,*01
$GPGLL,2509.0500,N,12146.5758,E,034132.995,A,A*5F
$GPGSA,A,3,03,06,07,11,13,16,19,23,25,,,,2.5,1.3,2.1*3D
$GPRMC,034132.995,A,2509.0500,N,12146.5758,E,9.9,215.6,151009,,,A*64
$GPVTG,215.6,T,,,9.9,N,18.3,K,A*7A
$GPGSV,3,1,10,13,28,246,34,19,64,002,39,25,69,293,41,03,41,033,43*73
$GPGSV,3,2,10,07,49,316,39,11,41,196,39,23,18,206,28,06,31,039,41*71
$GPGSV,3,3,10,16,18,085,33,08,12,322,28*79
$GPGGA,034133.996,2509.0477,N,12146.5737,E,1,09,1.3,31.78,M,,,,*05
$GPGLL,2509.0477,N,12146.5737,E,034133.996,A,A*55
$GPGSA,A,3,03,06,07,11,13,16,19,23,25,,,,2.5,1.3,2.1*3D
$GPRMC,034133.996,A,2509.0477,N,12146.5737,E,10.1,219.1,151009,,,A*55
$GPVTG,219.1,T,,,10.1,N,18.7,K,A*45
$GPGSV,3,1,10,13,28,246,35,19,64,002,39,25,69,293,39,03,41,033,43*7D
$GPGSV,3,2,10,07,49,316,37,11,41,196,41,23,18,206,26,06,31,039,41*7E
$GPGSV,3,3,10,16,18,085,34,08,12,322,25*73
$GPGGA,034134.995,2509.0453,N,12146.5714,E,1,09,1.3,31.50,M,,,,*0C
$GPGLL,2509.0453,N,12146.5714,E,034134.995,A,A*56
$GPGSA,A,3,03,06,07,11,13,16,19,23,25,,,,2.5,1.3,2.1*3D
$GPRMC,034134.995,A,2509.0453,N,12146.5714,E,10.5,220.5,151009,,,A*5C
$GPVTG,220.5,T,,,10.5,N,19.5,K,A*4C
$GPGSV,3,1,10,13,28,246,35,19,64,002,39,25,69,293,39,03,41,033,43*7D
$GPGSV,3,2,10,07,49,316,37,11,41,196,41,23,18,206,26,06,31,039,41*7E
$GPGSV,3,3,10,16,18,085,34,08,12,322,24*72
$GPGGA,034135.997,2509.0428,N,12146.5691,E,1,09,1.3,31.32,M,,,,*0B
$GPGLL,2509.0428,N,12146.5691,E,034135.997,A,A*55
$GPGSA,A,3,03,06,07,11,13,16,19,23,25,,,,2.5,1.3,2.1*3D
$GPRMC,034135.997,A,2509.0428,N,12146.5691,E,10.2,220.4,151009,,,A*59
$GPVTG,220.4,T,,,10.2,N,18.9,K,A*47
$GPGSV,3,1,10,13,28,246,29,19,63,002,39,25,69,293,39,03,41,033,43*77
$GPGSV,3,2,10,07,49,316,37,11,41,196,40,23,18,206,25,06,31,039,41*7C
$GPGSV,3,3,10,16,18,085,34,08,12,322,23*75
$GPGGA,034136.995,2509.0406,N,12146.5670,E,1,09,1.3,31.29,M,,,,*03
$GPGLL,2509.0406,N,12146.5670,E,034136.995,A,A*57
$GPGSA,A,3,03,06,07,11,13,16,19,23,25,,,,2.5,1.3,2.1*3D
$GPRMC,034136.995,A,2509.0406,N,12146.5670,E,9.7,220.8,151009,,,A*6A
$GPVTG,220.8,T,,,9.7,N,18.0,K,A*7F
$GPGSV,3,1,10,13,28,246,25,19,63,002,39,25,69,293,39,03,41,033,43*7B
$GPGSV,3,2,10,07,49,316,37,11,41,196,39,23,18,206,26,06,31,039,41*71
$GPGSV,3,3,10,16,18,085,34,08,12,322,24*72
$GPGGA,034137.997,2509.0378,N,12146.5659,E,1,09,1.3,31.48,M,,,,*02
$GPGLL,2509.0378,N,12146.5659,E,034137.997,A,A*51
$GPGSA,A,3,03,06,07,11,13,16,19,23,25,,,,2.5,1.3,2.1*3D
$GPRMC,034137.997,A,2509.0378,N,12146.5659,E,9.0,207.5,151009,,,A*63
$GPVTG,207.5,T,,,9.0,N,16.7,K,A*79
$GPGSV,3,1,10,13,28,246,24,19,63,002,40,25,69,293,38,03,41,033,43*75
$GPGSV,3,2,10,07,49,316,35,11,41,196,39,23,18,206,27,06,31,039,41*72
$GPGSV,3,3,10,16,18,085,32,08,12,322,25*75
$GPGGA,034138.995,2509.0357,N,12146.5641,E,1,09,1.3,31.54,M,,,,*06
$GPGLL,2509.0357,N,12146.5641,E,034138.995,A,A*58
$GPGSA,A,3,03,06,07,11,13,16,19,23,25,,,,2.5,1.3,2.1*3D
$GPRMC,034138.995,A,2509.0357,N,12146.5641,E,8.4,215.3,151009,,,A*6A
$GPVTG,215.3,T,,,8.4,N,15.5,K,A*78
$GPGSV,3,1,10,13,28,246,28,19,63,002,38,25,69,293,39,03,41,033,43*77
$GPGSV,3,2,10,07,49,316,35,11,41,196,40,23,18,206,31,06,31,039,41*7B
$GPGSV,3,3,10,16,18,085,32,08,12,322,24*74
$GPGGA,034139.996,2509.0335,N,12146.5627,E,1,09,1.3,31.86,M,,,,*0F
$GPGLL,2509.0335,N,12146.5627,E,034139.996,A,A*5E
$GPGSA,A,3,03,06,07,11,13,16,19,23,25,,,,2.5,1.3,2.1*3D
$GPRMC,034139.996,A,2509.0335,N,12146.5627,E,7.8,213.5,151009,,,A*6F
$GPVTG,213.5,T,,,7.8,N,14.4,K,A*7B
$GPGSV,3,1,10,13,28,246,33,19,63,002,37,25,69,293,38,03,41,033,39*7E
$GPGSV,3,2,10,07,49,316,36,11,41,196,40,23,18,206,34,06,31,039,41*7D
$GPGSV,3,3,10,16,18,085,32,08,12,322,24*74
$GPGGA,034140.994,2509.0315,N,12146.5614,E,1,09,1.3,32.01,M,,,,*0D
$GPGLL,2509.0315,N,12146.5614,E,034140.994,A,A*50
$GPGSA,A,3,03,06,07,11,13,16,19,23,25,,,,2.5,1.3,2.1*3D
$GPRMC,034140.994,A,2509.0315,N,12146.5614,E,7.3,212.5,151009,,,A*6B
$GPVTG,212.5,T,,,7.3,N,13.5,K,A*77
$GPGSV,3,1,10,13,28,246,33,19,63,002,39,25,69,293,39,03,41,033,39*71
$GPGSV,3,2,10,07,49,316,36,11,41,196,39,23,18,206,35,06,31,039,39*7D
$GPGSV,3,3,10,16,18,085,31,08,12,322,26*75
$GPGGA,034141.997,2509.0298,N,12146.5603,E,1,09,1.3,32.18,M,,,,*05
$GPGLL,2509.0298,N,12146.5603,E,034141.997,A,A*50
$GPGSA,A,3,03,06,07,11,13,16,19,23,25,,,,2.5,1.3,2.1*3D
$GPRMC,034141.997,A,2509.0298,N,12146.5603,E,7.3,210.8,151009,,,A*64
$GPVTG,210.8,T,,,7.3,N,13.5,K,A*78
$GPGSV,3,1,10,13,28,246,32,19,63,002,39,25,69,293,39,03,41,033,39*70
$GPGSV,3,2,10,07,49,316,36,11,41,196,39,23,18,206,35,06,31,039,39*7D
$GPGSV,3,3,10,16,18,085,31,08,12,322,25*76
$GPGGA,034142.995,2509.0279,N,12146.5592,E,1,08,1.3,32.42,M,,,,*0E
$GPGLL,2509.0279,N,12146.5592,E,034142.995,A,A*55
$GPGSA,A,3,03,06,07,11,16,19,23,25,,,,,2.5,1.3,2.1*3F
$GPRMC,034142.995,A,2509.0279,N,12146.5592,E,7.9,208.2,151009,,,A*68
$GPVTG,208.2,T,,,7.9,N,14.7,K,A*74
$GPGSV,3,1,10,13,28,246,27,19,63,002,39,25,69,293,39,03,41,033,42*78
$GPGSV,3,2,10,07,49,316,36,11,41,196,39,23,18,206,34,06,31,039,39*7C
$GPGSV,3,3,10,16,18,085,31,08,12,322,25*76
$GPGGA,034143.996,2509.0259,N,12146.5579,E,1,09,1.3,32.65,M,,,,*0F
$GPGLL,2509.0259,N,12146.5579,E,034143.996,A,A*50
$GPGSA,A,3,03,06,07,11,13,16,19,23,25,,,,2.5,1.3,2.1*3D
$GPRMC,034143.996,A,2509.0259,N,12146.5579,E,8.5,211.2,151009,,,A*66
$GPVTG,211.2,T,,,8.5,N,15.8,K,A*71
$GPGSV,3,1,10,13,28,246,23,19,63,002,39,25,69,293,40,03,41,033,42*72
$GPGSV,3,2,10,07,49,316,36,11,41,196,39,23,18,206,32,06,31,039,42*76
$GPGSV,3,3,10,16,18,085,34,08,12,322,24*72
$GPGGA,034144.995,2509.0241,N,12146.5562,E,1,09,1.3,32.61,M,,,,*0C
$GPGLL,2509.0241,N,12146.5562,E,034144.995,A,A*57
$GPGSA,A,3,03,06,07,11,13,16,19,23,25,,,,2.5,1.3,2.1*3D
$GPRMC,034144.995,A,2509.0241,N,12146.5562,E,8.6,218.3,151009,,,A*6A
$GPVTG,218.3,T,,,8.6,N,15.9,K,A*7B
$GPGSV,3,1,10,13,28,246,21,19,63,002,39,25,69,293,40,03,41,033,43*71
$GPGSV,3,2,10,07,49,316,36,11,41,196,41,23,18,206,32,06,31,039,42*79
$GPGSV,3,3,10,16,18,085,31,08,12,322,25*76
$GPGGA,034145.997,2509.0224,N,12146.5543,E,1,09,1.3,32.52,M,,,,*0F
$GPGLL,2509.0224,N,12146.5543,E,034145.997,A,A*54
$GPGSA,A,3,03,06,07,11,13,16,19,23,25,,,,2.5,1.3,2.1*3D
$GPRMC,034145.997,A,2509.0224,N,12146.5543,E,8.2,224.3,151009,,,A*62
$GPVTG,224.3,T,,,8.2,N,15.2,K,A*7B
$GPGSV,3,1,10,13,28,246,22,19,63,002,39,25,69,293,40,03,41,033,43*72
$GPGSV,3,2,10,07,49,316,36,11,41,196,41,23,18,206,32,06,31,039,42*79
$GPGSV,3,3,10,16,18,086,27,08,12,322,25*72
$GPGGA,034146.995,2509.0205,N,12146.5526,E,1,09,1.3,32.48,M,,,,*05
$GPGLL,2509.0205,N,12146.5526,E,034146.995,A,A*55
$GPGSA,A,3,03,06,07,11,13,16,19,23,25,,,,2.5,1.3,2.1*3D
$GPRMC,034146.995,A,2509.0205,N,12146.5526,E,7.8,219.4,151009,,,A*6F
$GPVTG,219.4,T,,,7.8,N,14.5,K,A*71
$GPGSV,3,1,10,13,28,246,21,19,63,002,39,25,69,293,40,03,41,033,43*71
$GPGSV,3,2,10,07,49,316,36,11,41,196,41,23,18,206,32,06,31,039,42*79
$GPGSV,3,3,10,16,18,086,22,08,12,322,23*71
$GPGGA,034147.996,2509.0189,N,12146.5510,E,1,09,1.3,32.43,M,,,,*0E
$GPGLL,2509.0189,N,12146.5510,E,034147.996,A,A*55
$GPGSA,A,3,03,06,07,11,13,16,19,23,25,,,,2.4,1.3,2.1*3C
$GPRMC,034147.996,A,2509.0189,N,12146.5510,E,7.1,219.8,151009,,,A*6A
$GPVTG,219.8,T,,,7.1,N,13.2,K,A*74
$GPGSV,3,1,10,13,28,246,22,19,63,002,39,25,69,293,40,03,41,033,43*72
